stop_id,stop_code,stop_name,stop_desc,stop_lat,stop_lon,zone_id,stop_url,location_type,parent_station,stop_timezone,wheelchair_boarding
1,1,Kalemegdan (Donji Grad),,44.8268096,20.4532741,1,,0,,,0
2,2,Tadeuša Košćuška,,44.8259171,20.455243,1,,0,,,0
3,3,Tadeuša Košćuška,,44.8262534,20.4549667,1,,0,,,0
4,4,Kalemegdan,,44.8203288,20.4532518,1,,0,,,0
5,5,Kalemegdan,,44.8208843,20.4540765,1,,0,,,0
6,6,Pristanište,,44.8186623,20.4494119,1,,0,,,0
7,7,Pristanište,,44.8189915,20.4495147,1,,0,,,0
8,8,Brankov Most,,44.814955,20.4507714,1,,0,,,0
9,9,Brankov Most,,44.8145626,20.4511267,1,,0,,,0
10,10,Ekonomski Fakultet,,44.8108839,20.4541239,1,,0,,,0
11,11,Ekonomski Fakultet,,44.8123596,20.4533806,1,,0,,,0
14,14,Palata Pravde,,44.8043401,20.4529576,1,,0,,,0
15,15,Palata Pravde,,44.8046468,20.4533204,1,,0,,,0
16,16,Mostar,,44.7986157,20.4485459,1,,0,,,0
17,17,Mostar,,44.7987781,20.4488534,1,,0,,,0
18,18,Sajam,,44.7965092,20.4428016,1,,0,,,0
19,19,Sajam,,44.7965425,20.4426205,1,,0,,,0
20,20,Ruska,,44.7951516,20.4377435,1,,0,,,0
21,21,Ruska,,44.795162,20.4373957,1,,0,,,0
22,22,Gospodarska Mehana,,44.7937116,20.4309756,1,,0,,,0
23,23,Gospodarska Mehana,,44.7937709,20.431366,1,,0,,,0
52,52,Dorćol /Kneginje Ljubice/,,44.8211062,20.464118,1,,0,,,0
53,53,Dorćol /Kneginje Ljubice/,,44.8212927,20.4641785,1,,0,,,0
54,54,Pijaca Skadarlija,,44.8182128,20.4670432,1,,0,,,0
55,55,Pijaca Skadarlija,,44.8186002,20.4669921,1,,0,,,0
56,56,Bulevar Despota Stefana,,44.8163458,20.4693717,1,,0,,,0
57,57,Bulevar Despota Stefana,,44.8166332,20.4693201,1,,0,,,0
58,58,Takovska,,44.8136364,20.4718202,1,,0,,,0
59,59,Takovska,,44.8132911,20.4723789,1,,0,,,0
60,60,Bežanijska Kosa /Grčka/,,44.81562,20.3712,1,,0,,,0
61,61,Palilulska Pijaca,,44.8105114,20.4747218,1,,0,,,0
62,62,Mašinski Fakultet,,44.80765,20.47721,1,,0,,,0
63,63,Vukov Spomenik,,44.8055219,20.4778908,1,,0,,,0
64,64,Vukov Spomenik,,44.8056059,20.4783626,1,,0,,,0
65,65,Pravni Fakultet,,44.8068231,20.4711145,1,,0,,,0
66,66,Pravni Fakultet,,44.8063686,20.4732286,1,,0,,,0
67,67,Trg Slavija /Nemanjina/,,44.8035254,20.4640694,1,,0,,,0
68,68,Trg Slavija /Nemanjina/,,44.8029655,20.4646244,1,,0,,,0
69,69,Savski Trg,,44.807638,20.457218,1,,0,,,0
70,70,Savski Trg,,44.807161,20.457861,1,,0,,,0
71,71,Braće Baruh,,44.8249325,20.4570548,1,,0,,,0
72,72,Braće Baruh,,44.825107,20.4570979,1,,0,,,0
73,73,Kralja Petra,,44.8233,20.46012,1,,0,,,0
74,74,Kralja Petra,,44.8234899,20.4601112,1,,0,,,0
75,75,Dinarska,,44.787778,20.462744,1,,0,,,0
76,76,Omladinski Stadion,,44.8147182,20.4911811,1,,0,,,0
77,77,Vatrogasna Komanda,,44.812013,20.4878232,1,,0,,,0
78,78,Vatrogasna Komanda,,44.8127674,20.4889325,1,,0,,,0
79,79,Novo Groblje,,44.8098633,20.4847429,1,,0,,,0
80,80,Novo Groblje,,44.8108813,20.4866457,1,,0,,,0
81,81,"Vmc ""Karaburma""",,44.81307,20.49208,1,,0,,,0
82,82,Studentski Trg,,44.8185173,20.4575616,1,,0,,,0
83,83,Gradska Bolnica,,44.7999681,20.498964,1,,0,,,0
84,84,Tašmajdan /Park/,,44.8095925,20.4679937,1,,0,,,0
85,85,Mašinski Fakultet,,44.8077358,20.476938,1,,0,,,0
86,86,Vukov Spomenik /Bul.Kralja Aleksa./,,44.8040306,20.4787341,1,,0,,,0
87,87,Go Zvezdara,,44.8023429,20.4827651,1,,0,,,0
88,88,Go Zvezdara,,44.8026658,20.4822055,1,,0,,,0
89,89,Pijaca Đeram,,44.8004384,20.4873457,1,,0,,,0
90,90,Pijaca Đeram,,44.8010396,20.4861159,1,,0,,,0
91,91,Batutova,,44.7953953,20.4997175,1,,0,,,0
92,92,Pop Stojanova,,44.798647,20.4916456,1,,0,,,0
93,93,Pop Stojanova,,44.7994899,20.4898449,1,,0,,,0
94,94,Lion,,44.7970072,20.4955096,1,,0,,,0
95,95,Lion,,44.7975106,20.4945356,1,,0,,,0
96,96,Batutova,,44.7951453,20.4998372,1,,0,,,0
97,97,Batutova,,44.795982,20.4981184,1,,0,,,0
98,98,Pijaca Zvezdara,,44.7930769,20.5049009,1,,0,,,0
99,99,Pijaca Zvezdara,,44.7933027,20.5047418,1,,0,,,0
100,100,Dr Velizara Kosanovića,,44.7925325,20.5090252,1,,0,,,0
101,101,Dr Velizara Kosanovića,,44.792018,20.5107837,1,,0,,,0
102,102,Mite Ružića,,44.7904937,20.5136638,1,,0,,,0
103,103,Mite Ružića,,44.79109,20.512623,1,,0,,,0
104,104,Koste Trifkovića,,44.7886761,20.5162984,1,,0,,,0
105,105,Koste Trifkovića,,44.7893815,20.5158182,1,,0,,,0
106,106,Ustanička,,44.7849339,20.5176852,1,,0,,,0
107,107,Ustanička,,44.7845328,20.5185952,1,,0,,,0
108,108,Vukov Spomenik /Bul.Kralja Aleksa./,,44.8045797,20.4776526,1,,0,,,0
109,109,Pravni Fakultet,,44.8075868,20.4708758,1,,0,,,0
110,110,Banovo Brdo Ok,,44.768053,20.4137999,1,,0,,,0
111,111,Tašmajdan,,44.8087623,20.4667588,1,,0,,,0
112,112,Tašmajdan,,44.8093014,20.4675287,1,,0,,,0
113,113,Rk Beograđanka,,44.8062283,20.4637085,1,,0,,,0
114,114,Rk Beograđanka,,44.806534,20.4642308,1,,0,,,0
115,115,Ekonomski Fakultet,,44.8107837,20.4532522,1,,0,,,0
116,116,Staro Sajmište,,44.811749,20.43994,1,,0,,,0
117,117,Staro Sajmište,,44.8119131,20.4389698,1,,0,,,0
118,118,Blok 21,,44.8137528,20.4334929,1,,0,,,0
119,119,Blok 21,,44.813911,20.4340516,1,,0,,,0
120,120,Sava Centar,,44.8091587,20.4293322,1,,0,,,0
121,121,Sava Centar,,44.8101307,20.430628,1,,0,,,0
122,122,Blok 23,,44.8067164,20.4271201,1,,0,,,0
123,123,Blok 23,,44.8068669,20.4276701,1,,0,,,0
124,124,Milutina Milankovića,,44.8071314,20.4221298,1,,0,,,0
125,125,Milutina Milankovića,,44.8068631,20.422518,1,,0,,,0
126,126,Železnička Stanica Novi Beograd,,44.8066685,20.4181675,1,,0,,,0
127,127,Železnička Stanica Novi Beograd,,44.8068986,20.4184967,1,,0,,,0
128,128,Blok 42,,44.8039679,20.416257,1,,0,,,0
129,129,Blok 42,,44.8046742,20.4173261,1,,0,,,0
130,130,Agostina Neta,,44.8045794,20.4027607,1,,0,,,0
131,131,Agostina Neta,,44.8044091,20.404725,1,,0,,,0
132,132,Omladinskih Brigada,,44.8045678,20.3984026,1,,0,,,0
133,133,Omladinskih Brigada,,44.8045221,20.4002405,1,,0,,,0
134,134,Blok 70,,44.8042263,20.393378,1,,0,,,0
135,135,Blok 70,,44.8042017,20.3938915,1,,0,,,0
136,136,Gandijeva,,44.803299,20.3871984,1,,0,,,0
137,137,Gandijeva,,44.8035326,20.3888872,1,,0,,,0
138,138,Nehruova,,44.8015162,20.3801801,1,,0,,,0
139,139,Nehruova,,44.8019202,20.3818127,1,,0,,,0
140,140,Oš Branko Radičević,,44.7997959,20.3754264,1,,0,,,0
141,141,Oš Branko Radičević,,44.8003212,20.3769767,1,,0,,,0
142,142,Dr Ivana Ribara,,44.7969497,20.3716298,1,,0,,,0
143,143,Dr Ivana Ribara,,44.7981796,20.3720192,1,,0,,,0
144,144,Blok 45,,44.793903,20.374039,1,,0,,,0
145,145,Blok 45,,44.79375,20.374307,1,,0,,,0
146,146,Trg Slavija /Bulevar Oslobođenja/,,44.8013366,20.4660143,1,,0,,,0
147,147,Trg Slavija /Bulevar Oslobođenja/,,44.8014387,20.4662564,1,,0,,,0
148,148,Karađorđev Park,,44.7969751,20.4652072,1,,0,,,0
149,149,Karađorđev Park,,44.798345,20.465707,1,,0,,,0
150,150,Franše Deperea,,44.7926003,20.4662868,1,,0,,,0
151,151,Franše Deperea,,44.7931005,20.4661949,1,,0,,,0
152,152,Zvečanska,,44.7884554,20.4656455,1,,0,,,0
153,153,Trg Oslobođenja,,44.787253,20.466259,1,,0,,,0
154,154,Trg Oslobođenja,,44.786299,20.46728,1,,0,,,0
155,155,"Vmc ""Karaburma""",,44.81356,20.49231,1,,0,,,0
156,156,Bože Jankovića,,44.783634,20.470226,1,,0,,,0
157,157,Kralja Vladimira,,44.782021,20.471461,1,,0,,,0
158,158,Kralja Vladimira,,44.781635,20.471786,1,,0,,,0
159,159,Vitanovačka,,44.778531,20.473901,1,,0,,,0
160,160,Vitanovačka,,44.777145,20.474586,1,,0,,,0
161,161,Petrovačka,,44.775239,20.475421,1,,0,,,0
162,162,Servisi,,44.810068,20.49335,1,,0,,,0
163,163,Nikšićka,,44.771439,20.477933,1,,0,,,0
164,164,Nikšićka,,44.773073,20.477096,1,,0,,,0
165,165,Visoka Škola Elektrotehnike,,44.768393,20.479632,1,,0,,,0
166,166,Visoka Škola Elektrotehnike,,44.769197,20.479081,1,,0,,,0
167,167,Saobraćajni Fakultet,,44.765218,20.482517,1,,0,,,0
168,168,Saobraćajni Fakultet,,44.765949,20.4822,1,,0,,,0
169,169,Voždovac,,44.7608213,20.4847029,1,,0,,,0
170,170,Banjica,,44.756943,20.4780857,1,,0,,,0
171,171,Banjica,,44.7569169,20.4772965,1,,0,,,0
172,172,Vračarska,,44.7570279,20.4812971,1,,0,,,0
173,173,Vračarska,,44.7572317,20.4808123,1,,0,,,0
174,174,Voždovac,,44.7614246,20.484245,1,,0,,,0
175,175,Voždovac,,44.7611691,20.4840499,1,,0,,,0
176,176,Pravni Fakultet,,44.8075599,20.4721073,1,,0,,,0
177,177,Hipodrom,,44.7876828,20.4239284,1,,0,,,0
178,178,Hipodrom,,44.7878619,20.4243942,1,,0,,,0
179,179,Kneza Višeslava,,44.7830859,20.4210402,1,,0,,,0
180,180,Kneza Višeslava,,44.7834846,20.4226731,1,,0,,,0
181,181,Škola Josif Pančić,,44.7810389,20.4171353,1,,0,,,0
182,182,Škola Josif Pančić,,44.7815428,20.4177667,1,,0,,,0
183,183,Dom Zdravlja,,44.7777676,20.4144755,1,,0,,,0
184,184,Dom Zdravlja,,44.779142,20.4159022,1,,0,,,0
185,185,Kijevska,,44.7753902,20.4135524,1,,0,,,0
186,186,Kijevska,,44.7759249,20.4137819,1,,0,,,0
187,187,Trebevićka,,44.7712774,20.4140971,1,,0,,,0
188,188,Trebevićka,,44.7715863,20.4142866,1,,0,,,0
189,189,Banovo Brdo,,44.7685282,20.4130055,1,,0,,,0
190,190,Park Tašmajdan,,44.8089377,20.4688885,1,,0,,,0
191,191,Omladinskih Brigada 1,,44.8143556,20.4040069,1,,0,,,0
192,192,Beogradska Arena /Antifašističke Borbe/,,44.8117492,20.4223993,1,,0,,,0
193,193,Trg Republike,,44.8171543,20.4596755,1,,0,,,0
194,194,Trg Republike,,44.8172515,20.4597975,1,,0,,,0
195,195,Terazije,,44.8126611,20.4610426,1,,0,,,0
196,196,Terazije,,44.8133811,20.4609536,1,,0,,,0
197,197,Rk Beograđanka,,44.8072057,20.4640461,1,,0,,,0
198,198,Rk Beograđanka,,44.8075759,20.4640601,1,,0,,,0
199,199,Trg Slavija,,44.803307,20.466166,1,,0,,,0
200,200,Trg Slavija,,44.8036178,20.4661851,1,,0,,,0
201,201,Katanićeva,,44.7994818,20.4717603,1,,0,,,0
202,202,Novopazarska,,44.7980191,20.473978,1,,0,,,0
203,203,Mačvanska,,44.7977761,20.4740654,1,,0,,,0
204,204,Katanićeva,,44.8001305,20.4711513,1,,0,,,0
205,205,Vojvode Dragomira,,44.7979517,20.4791509,1,,0,,,0
206,206,Vojvode Dragomira,,44.7981149,20.4801466,1,,0,,,0
207,207,Crveni Krst,,44.7973729,20.4873766,1,,0,,,0
208,208,Crveni Krst,,44.7979419,20.4857114,1,,0,,,0
209,209,Bregalnička,,44.7950716,20.4907647,1,,0,,,0
210,210,Bregalnička,,44.7952652,20.4906487,1,,0,,,0
211,211,Velimira Todorovića,,44.7933015,20.4950784,1,,0,,,0
212,212,Velimira Todorovića,,44.7937887,20.494294,1,,0,,,0
213,213,Škola Vojislav Ilić,,44.790819,20.4979448,1,,0,,,0
214,214,Škola Vojislav Ilić,,44.7919,20.4973726,1,,0,,,0
215,215,Rimska,,44.7874747,20.4996837,1,,0,,,0
216,216,Rimska,,44.7871448,20.5001177,1,,0,,,0
217,217,Šumice,,44.7831807,20.5023336,1,,0,,,0
218,218,Šumice,,44.7840237,20.5012584,1,,0,,,0
219,219,Petrinjska,,44.7826051,20.5072393,1,,0,,,0
220,220,Petrinjska,,44.7830225,20.505614,1,,0,,,0
221,221,Konjarnik,,44.7820475,20.5118648,1,,0,,,0
222,222,Konjarnik,,44.7824125,20.5104825,1,,0,,,0
223,223,Rimska,,44.7866817,20.5009334,1,,0,,,0
224,224,Rimska,,44.7869449,20.5012021,1,,0,,,0
225,225,Peđe Milosavljevića,,44.8179122,20.3770183,1,,0,,,0
226,226,Dr Velizara Kosanovića,,44.788128,20.5046576,1,,0,,,0
227,227,Marčanska,,44.7872192,20.5088259,1,,0,,,0
228,228,Učiteljsko Naselje,,44.7861084,20.5069857,1,,0,,,0
229,229,Bačvanska,,44.791018,20.494264,1,,0,,,0
230,230,Bačvanska,,44.7909296,20.4937384,1,,0,,,0
231,231,Grčića Milenka,,44.7915335,20.4908027,1,,0,,,0
232,232,Grčića Milenka,,44.791663,20.4892588,1,,0,,,0
236,236,13. Maj /Ulaz/,,44.88391,20.34,2,,0,,,0
237,237,Beogradska Arena /Španskih Boraca/,,44.8136657,20.4182221,1,,0,,,0
238,238,Makedonska,,44.8152304,20.465301,1,,0,,,0
239,239,27. Marta,,44.8136931,20.4727333,1,,0,,,0
240,240,27. Marta,,44.81285,20.4713,1,,0,,,0
241,241,Jaše Prodanovića,,44.8147395,20.4773697,1,,0,,,0
242,242,Jaše Prodanovića,,44.8151952,20.4764661,1,,0,,,0
243,243,Zdravka Čelara,,44.8108918,20.4794788,1,,0,,,0
244,244,Zdravka Čelara,,44.8117925,20.4790407,1,,0,,,0
245,245,Podvožnjak,,44.8062675,20.4835152,1,,0,,,0
246,246,Podvožnjak,,44.8062108,20.4838191,1,,0,,,0
247,247,Marka Oreškovića,,44.803107,20.488641,1,,0,,,0
248,248,Marka Oreškovića,,44.8041592,20.4868742,1,,0,,,0
249,249,Šabačka,,44.8011503,20.4936255,1,,0,,,0
250,250,Živojina Žujovića,,44.8016383,20.4925911,1,,0,,,0
251,251,Čegarska,,44.8008487,20.4957191,1,,0,,,0
252,252,Gradska Bolnica,,44.7996743,20.5003885,1,,0,,,0
253,253,Gradska Bolnica,,44.8001007,20.4991855,1,,0,,,0
254,254,Miloša Jankovića,,44.7993201,20.5031975,1,,0,,,0
255,255,Miloša Jankovića,,44.7993554,20.5037258,1,,0,,,0
256,256,Zvezdara,,44.7982332,20.5060759,1,,0,,,0
257,257,Zvezdara,,44.7982668,20.5070963,1,,0,,,0
258,258,Šumice,,44.7828929,20.5013781,1,,0,,,0
259,259,Vladimira Tomanovića,,44.7819356,20.5020329,1,,0,,,0
260,260,Medaković 2,,44.7748965,20.4997329,1,,0,,,0
261,261,Medaković 2,,44.775763,20.5002001,1,,0,,,0
262,262,Svetozara Radojčića,,44.7721658,20.5022407,1,,0,,,0
263,263,Svetozara Radojčića,,44.7721286,20.5026846,1,,0,,,0
264,264,Medaković 3,,44.7722888,20.5074489,1,,0,,,0
265,265,Medaković 3,,44.7722775,20.5079701,1,,0,,,0
266,266,Glavna Pošta,,44.8111274,20.4671298,1,,0,,,0
267,267,Glavna Pošta,,44.8113682,20.4684095,1,,0,,,0
268,268,Admirala Geprata,,44.8068131,20.461342,1,,0,,,0
269,269,London,,44.8079348,20.4629835,1,,0,,,0
270,270,Birčaninova,,44.8050959,20.4595891,1,,0,,,0
271,271,Miloša Pocerca,,44.8023209,20.455868,1,,0,,,0
272,272,Višegradska,,44.8017912,20.4556623,1,,0,,,0
273,273,Železnička Stanica Beograd Centar,,44.79314,20.45013,1,,0,,,0
274,274,Ortopedski Zavod,,44.7952244,20.4487627,1,,0,,,0
275,275,Muzej Jugoslavije,,44.7897102,20.454344,1,,0,,,0
276,276,Muzej Jugoslavije,,44.7910529,20.4533508,1,,0,,,0
277,277,Stadion Partizan,,44.7863122,20.4574114,1,,0,,,0
278,278,Stadion Partizan,,44.7860458,20.4575859,1,,0,,,0
279,279,Bolnica Dragiša Mišović,,44.7777467,20.458125,1,,0,,,0
280,280,Bolnica Dragiša Mišović,,44.7774138,20.4584376,1,,0,,,0
281,281,Paje Adamova,,44.7727336,20.4626273,1,,0,,,0
282,282,Paje Adamova,,44.7738118,20.4619016,1,,0,,,0
283,283,Banjica,,44.7693931,20.4660675,1,,0,,,0
284,284,Banjica,,44.7700005,20.4656419,1,,0,,,0
285,285,Vojnomedicinska Akademija,,44.7656429,20.4701174,1,,0,,,0
286,286,Vojnomedicinska Akademija,,44.7666401,20.4694174,1,,0,,,0
287,287,Plivalište Banjica,,44.7630575,20.4724584,1,,0,,,0
288,288,Plivalište Banjica,,44.7640596,20.4717497,1,,0,,,0
289,289,Paunova,,44.7599439,20.4762979,1,,0,,,0
290,290,Železnička Stanica Beograd Centar,,44.793403,20.450068,1,,0,,,0
291,291,Baštovanska,,44.7563146,20.476882,1,,0,,,0
292,292,Baštovanska,,44.7571205,20.4771784,1,,0,,,0
293,293,Kragujevačkih Đaka,,44.7541026,20.4775466,1,,0,,,0
294,294,Kragujevačkih Đaka,,44.7548903,20.476996,1,,0,,,0
295,295,Banjica 2,,44.7516965,20.4801156,1,,0,,,0
296,296,Zeleni Venac,,44.8140278,20.4559283,1,,0,,,0
297,297,Brankov Most,,44.8153546,20.4519996,1,,0,,,0
298,298,Brankov Most,,44.8150071,20.4527244,1,,0,,,0
299,299,Ušće,,44.8151954,20.4392285,1,,0,,,0
300,300,Ušće,,44.8151283,20.438983,1,,0,,,0
301,301,Milentija Popovića,,44.8128851,20.4290423,1,,0,,,0
302,302,Milentija Popovića,,44.8116872,20.4305794,1,,0,,,0
303,303,Palata Srbija,,44.821073,20.4300769,1,,0,,,0
304,304,Palata Srbija,,44.820347,20.4311991,1,,0,,,0
305,305,Hotel Jugoslavija,,44.8292718,20.4195112,1,,0,,,0
306,306,Hotel Jugoslavija,,44.8271208,20.4196261,1,,0,,,0
307,307,Džona Kenedija,,44.8353837,20.4182275,1,,0,,,0
308,308,Džona Kenedija,,44.8331847,20.4183597,1,,0,,,0
309,309,Sremčica,,44.650177,20.404354,2,,0,,,0
310,310,Karađorđev Trg,,44.8369856,20.4173163,1,,0,,,0
311,311,Makedonska,,44.8155083,20.4648426,1,,0,,,0
312,312,Aleksandra Dubčeka,,44.8389446,20.4109796,1,,0,,,0
313,313,Kbc Zemun,,44.8412496,20.4063507,1,,0,,,0
314,314,Kbc Zemun,,44.8403405,20.4070783,1,,0,,,0
315,315,Prilaz,,44.8414886,20.4032747,1,,0,,,0
316,316,Prilaz,,44.8416465,20.4045823,1,,0,,,0
317,317,Zlatiborska,,44.8411741,20.3959431,1,,0,,,0
318,318,Zlatiborska,,44.8410425,20.3955112,1,,0,,,0
319,319,Bosanska,,44.841504,20.389533,1,,0,,,0
320,320,Bosanska,,44.8412181,20.3907157,1,,0,,,0
321,321,Rada Končara,,44.8422838,20.3835027,1,,0,,,0
322,322,Rada Končara,,44.841913,20.3854949,1,,0,,,0
323,323,Prvomajska,,44.8429732,20.3795756,1,,0,,,0
324,324,Prvomajska,,44.8426785,20.3797718,1,,0,,,0
325,325,Vojni Put,,44.8414304,20.3762482,1,,0,,,0
326,326,Vojni Put,,44.8425306,20.3766551,1,,0,,,0
327,327,Branko Plećaš,,44.8396506,20.3742519,1,,0,,,0
328,328,Branko Plećaš,,44.8396943,20.375907,1,,0,,,0
329,329,Oš Gavrilo Princip,,44.8400502,20.3712034,1,,0,,,0
330,330,Oš Gavrilo Princip,,44.8398999,20.3716769,1,,0,,,0
331,331,Beogradska Arena /Španskih Boraca/,,44.8129921,20.4184316,1,,0,,,0
332,332,Antifašističke Borbe,,44.8149476,20.4245383,1,,0,,,0
333,333,Zemun /Novi Grad/,,44.8420926,20.3689475,1,,0,,,0
334,334,Karaburma 2,,44.8073301,20.5219058,1,,0,,,0
335,335,Salvadora Aljendea,,44.8103019,20.5220863,1,,0,,,0
336,336,Salvadora Aljendea,,44.8105123,20.521816,1,,0,,,0
337,337,Husinjskih Rudara,,44.8130068,20.51768,1,,0,,,0
338,338,Husinjskih Rudara,,44.8127286,20.5180616,1,,0,,,0
339,339,Stevana Hristića,,44.8130856,20.5138823,1,,0,,,0
340,340,Stevana Hristića,,44.8130279,20.5130464,1,,0,,,0
341,341,Diljska,,44.813208,20.5103101,1,,0,,,0
342,342,Diljska,,44.813106,20.5109587,1,,0,,,0
343,343,Patrisa Lumumbe,,44.8147957,20.5062503,1,,0,,,0
344,344,Patrisa Lumumbe,,44.8146752,20.5062415,1,,0,,,0
345,345,Vojvode Micka Krstića,,44.8176973,20.5010457,1,,0,,,0
346,346,Vuka Vrčevića,,44.817949,20.4966382,1,,0,,,0
347,347,Vuka Vrčevića,,44.8176859,20.4955529,1,,0,,,0
348,348,Pančevački Most,,44.8181122,20.4879201,1,,0,,,0
349,349,Pančevački Most,,44.8178693,20.4885237,1,,0,,,0
350,350,Czk Vlada Divljan,,44.8177692,20.4848421,1,,0,,,0
351,351,Czk Vlada Divljan,,44.8174398,20.4831588,1,,0,,,0
352,352,Jovana Avakumovića,,44.8173983,20.4793919,1,,0,,,0
353,353,Cvijićeva,,44.8172447,20.4758144,1,,0,,,0
354,354,Cvijićeva,,44.817132,20.47775,1,,0,,,0
355,355,Džordža Vašingtona,,44.8169862,20.4698272,1,,0,,,0
356,356,Džordža Vašingtona,,44.8168481,20.4700165,1,,0,,,0
357,357,Skadarska,,44.8166403,20.463641,1,,0,,,0
358,358,Dom Omladine,,44.8154605,20.4624558,1,,0,,,0
359,359,Zeleni Venac,,44.8145445,20.4568568,1,,0,,,0
360,360,Zeleni Venac,,44.814336,20.4569213,1,,0,,,0
361,361,Brankov Most,,44.8152343,20.4520847,1,,0,,,0
362,362,Šest Kaplara,,44.8153352,20.4334052,1,,0,,,0
363,363,Šest Kaplara,,44.8145062,20.4354657,1,,0,,,0
364,364,Palata Srbija,,44.8170229,20.4295846,1,,0,,,0
365,365,Palata Srbija,,44.8170952,20.4287832,1,,0,,,0
366,366,Španskih Boraca,,44.8198273,20.4233328,1,,0,,,0
367,367,Španskih Boraca,,44.8195995,20.4232095,1,,0,,,0
368,368,Blok 30,,44.8228957,20.4165033,1,,0,,,0
369,369,Blok 30,,44.8216736,20.4186039,1,,0,,,0
370,370,Go Novi Beograd,,44.8235746,20.4143783,1,,0,,,0
371,371,Arhiv,,44.8256565,20.4128744,1,,0,,,0
372,372,Arhiv,,44.8269855,20.4120413,1,,0,,,0
373,373,Bulevar Maršala Tolbuhina,,44.8293228,20.4116068,1,,0,,,0
374,374,Bulevar Maršala Tolbuhina,,44.8297399,20.4111151,1,,0,,,0
375,375,Antifašističke Borbe,,44.8138682,20.4258548,1,,0,,,0
376,376,Beogradska Arena,,44.8168628,20.4203545,1,,0,,,0
377,377,Novi Beograd /Paviljoni/,,44.8305079,20.4055533,1,,0,,,0
378,378,Novi Beograd /Paviljoni/,,44.830254,20.4043134,1,,0,,,0
379,379,Konjarnik,,44.7824215,20.5098746,1,,0,,,0
380,380,Šumice,,44.7837077,20.4998183,1,,0,,,0
381,381,Hotel Srbija,,44.7841873,20.4936461,1,,0,,,0
382,382,Hotel Srbija,,44.7839778,20.4961917,1,,0,,,0
383,383,Grčića Milenka,,44.7844328,20.4863685,1,,0,,,0
384,384,Grčića Milenka,,44.7842538,20.4867962,1,,0,,,0
385,385,Dušanovac /Pošta/,,44.7848255,20.4812425,1,,0,,,0
386,386,Dušanovac /Pošta/,,44.7864103,20.4799512,1,,0,,,0
387,387,Beogradska Arena /Antifašističke Borbe/,,44.8110829,20.4226044,1,,0,,,0
388,388,Dom Zdravlja Voždovac,,44.7877078,20.4737303,1,,0,,,0
389,389,Stratimirovićeva,,44.7879067,20.475606,1,,0,,,0
390,390,Južni Bulevar,,44.7913893,20.4686238,1,,0,,,0
391,391,Franše Deperea,,44.7909552,20.4681464,1,,0,,,0
392,392,Franše Deperea,,44.7915037,20.4664557,1,,0,,,0
393,393,Deligradska,,44.7958451,20.4574433,1,,0,,,0
394,394,Deligradska,,44.7953523,20.4574215,1,,0,,,0
395,395,Mostar,,44.797863,20.4506391,1,,0,,,0
396,396,Mostar,,44.7975243,20.4506377,1,,0,,,0
397,397,Sava Centar,,44.8077346,20.4311792,1,,0,,,0
398,398,Sava Centar,,44.8071649,20.4311149,1,,0,,,0
399,399,Omladinskih Brigada,,44.8174157,20.4100599,1,,0,,,0
400,400,Omladinskih Brigada,,44.8168683,20.4099511,1,,0,,,0
401,401,Bulevar Zorana Đinđića,,44.8201252,20.4096032,1,,0,,,0
402,402,Bulevar Zorana Đinđića,,44.8203822,20.4094923,1,,0,,,0
403,403,Go Novi Beograd,,44.823441,20.412715,1,,0,,,0
404,404,Go Novi Beograd,,44.8233978,20.4121917,1,,0,,,0
405,405,Džona Kenedija,,44.8342995,20.4099279,1,,0,,,0
406,406,Džona Kenedija,,44.8340064,20.4096856,1,,0,,,0
407,407,Prve Pruge - Retenzija,,44.836868,20.410649,1,,0,,,0
408,408,Poljoprivredni Fakultet,,44.839446,20.412962,1,,0,,,0
409,409,22. Oktobra,,44.837868,20.411235,1,,0,,,0
410,410,Zemun /Pošta/,,44.842241,20.41333,1,,0,,,0
411,411,Zemun /Pošta/,,44.8407785,20.4142829,1,,0,,,0
412,412,Rk Beograd,,44.8435073,20.4120674,1,,0,,,0
413,413,Trg Branka Radičevića,,44.8461271,20.409522,1,,0,,,0
414,414,Trg Branka Radičevića,,44.8464223,20.4085402,1,,0,,,0
415,415,Nade Dimić,,44.8491997,20.4028221,1,,0,,,0
416,416,Nade Dimić,,44.8491959,20.4024756,1,,0,,,0
417,417,Dunavska,,44.8510632,20.3977629,1,,0,,,0
418,418,Dunavska,,44.851258,20.3969028,1,,0,,,0
419,419,Tršćanska,,44.8538513,20.3904097,1,,0,,,0
420,420,Tršćanska,,44.8531657,20.3918462,1,,0,,,0
421,421,Filipa Višnjića,,44.8553205,20.3866105,1,,0,,,0
422,422,Filipa Višnjića,,44.8546974,20.3876989,1,,0,,,0
423,423,Ruska,,44.8579024,20.380849,1,,0,,,0
424,424,Ruska,,44.8573199,20.3817836,1,,0,,,0
425,425,Zemun /Gornji Grad/,,44.8593805,20.3781772,1,,0,,,0
426,426,Vojislava Ilića,,44.7719088,20.5041951,1,,0,,,0
427,427,Vojislava Ilića,,44.7717421,20.5042883,1,,0,,,0
428,428,Zaplanjska,,44.7688465,20.5005303,1,,0,,,0
429,429,Zaplanjska,,44.7685682,20.5006999,1,,0,,,0
430,430,Naselje Braće Jerković,,44.7650461,20.4997209,1,,0,,,0
431,431,Naselje Braće Jerković,,44.7657541,20.5002113,1,,0,,,0
432,432,Braće Jerković (Mitrovo Brdo),,44.7631738,20.4974613,1,,0,,,0
433,433,Braće Jerković (Mitrovo Brdo),,44.763638,20.498616,1,,0,,,0
434,434,Beogradska Arena,,44.815775,20.4216954,1,,0,,,0
435,435,Bulevar Umetnosti,,44.8186313,20.415466,1,,0,,,0
436,436,Sc Sport Eko,,44.764682,20.4929544,1,,0,,,0
437,437,Sc Sport Eko,,44.764018,20.493556,1,,0,,,0
438,438,Jovana Bijelića,,44.7680214,20.4901063,1,,0,,,0
439,439,Jovana Bijelića,,44.7685137,20.4896266,1,,0,,,0
440,440,Meštrovićeva,,44.7711968,20.4880744,1,,0,,,0
441,441,Meštrovićeva,,44.7717869,20.4875265,1,,0,,,0
442,442,Darvinova,,44.7728991,20.4822534,1,,0,,,0
443,443,Darvinova,,44.771569,20.483153,1,,0,,,0
444,444,Bjelovarska,,44.775943,20.481288,1,,0,,,0
445,445,Bjelovarska,,44.7760161,20.4812592,1,,0,,,0
446,446,Vitanovačka,,44.7791162,20.4797293,1,,0,,,0
447,447,Vitanovačka,,44.7795707,20.4792842,1,,0,,,0
448,448,Ljubićka (Univerzitet Singidunum),,44.7829127,20.4771723,1,,0,,,0
449,449,Ljubićka (Univerzitet Singidunum),,44.7825713,20.4773245,1,,0,,,0
450,450,Prešernova,,44.7859552,20.4731015,1,,0,,,0
451,451,Prešernova,,44.7852941,20.4741588,1,,0,,,0
452,452,Trg Oslobođenja,,44.7877401,20.4662738,1,,0,,,0
453,453,Omladinskih Brigada 1,,44.8156299,20.4039334,1,,0,,,0
454,454,Ulaz U Pariske Komune,,44.8249311,20.4118497,1,,0,,,0
455,455,Fontana,,44.8267445,20.4075088,1,,0,,,0
456,456,Fontana,,44.8256816,20.4095213,1,,0,,,0
457,457,Ix Beogradska Gimnazija,,44.8293993,20.4011517,1,,0,,,0
458,458,Ix Beogradska Gimnazija,,44.8287987,20.4020837,1,,0,,,0
459,459,Pariske  Komune,,44.8317054,20.4001059,1,,0,,,0
460,460,Pariske  Komune,,44.8312652,20.3997695,1,,0,,,0
461,461,Paviljoni,,44.8352073,20.4015593,1,,0,,,0
462,462,Paviljoni,,44.8353582,20.4014664,1,,0,,,0
463,463,Prilaz,,44.8404143,20.4037168,1,,0,,,0
464,464,Mirijevo 3,,44.7936472,20.5366723,2,,0,,,0
465,465,Mirijevo 3,,44.7939456,20.5368794,2,,0,,,0
466,466,13. Maj /Ulaz/,,44.88366,20.33956,2,,0,,,0
467,467,Pijaca,,44.72703,20.373222,2,,0,,,0
468,468,Semjuela Beketa,,44.790558,20.5405299,2,,0,,,0
469,469,Semjuela Beketa,,44.7906466,20.5406257,2,,0,,,0
470,470,Matice Srpske,,44.7899445,20.5380921,2,,0,,,0
471,471,Matice Srpske,,44.7899709,20.5385369,2,,0,,,0
472,472,Branka Ćopića,,44.7874241,20.5367041,2,,0,,,0
473,473,Branka Ćopića,,44.7877091,20.5370552,2,,0,,,0
474,474,16. Oktobra,,44.7865548,20.5305233,2,,0,,,0
475,475,16. Oktobra,,44.7864804,20.5309896,2,,0,,,0
476,476,Vitezova Karađorđeve Zvezde,,44.7911071,20.5240195,1,,0,,,0
477,477,Vitezova Karađorđeve Zvezde,,44.7908292,20.5254536,1,,0,,,0
478,478,Savski Trg (Savska),,44.80691,20.455408,1,,0,,,0
479,479,Mite Ružića,,44.7913857,20.5144222,1,,0,,,0
480,480,Bulevar Kralja Aleksandra,,44.783992,20.5174953,1,,0,,,0
481,481,Bulevar Kralja Aleksandra,,44.7838181,20.5174399,1,,0,,,0
482,482,Milutina Milankovića,,44.8072274,20.4222513,1,,0,,,0
483,483,Rudo,,44.785033,20.513868,1,,0,,,0
484,484,Rudo,,44.7842267,20.5138534,1,,0,,,0
485,485,Budvanska,,44.7858741,20.5112702,1,,0,,,0
486,486,Budvanska,,44.7856993,20.5108272,1,,0,,,0
487,487,Učiteljsko Naselje,,44.7850744,20.5071519,1,,0,,,0
488,488,Učiteljsko Naselje,,44.7850849,20.5076443,1,,0,,,0
489,489,Dr Velizara Kosanovića,,44.7882477,20.5052906,1,,0,,,0
490,490,Karaburma 2,,44.8069248,20.5221477,1,,0,,,0
491,491,Peta Ekonomska,,44.7570519,20.4565505,1,,0,,,0
492,492,Cvijićeva,,44.8159993,20.4760864,1,,0,,,0
493,493,Mostar,,44.7988326,20.4491565,1,,0,,,0
494,494,Mostar,,44.7982204,20.4488814,1,,0,,,0
495,495,Sajam,,44.7965184,20.4415564,1,,0,,,0
496,496,Sajam,,44.7964066,20.4420988,1,,0,,,0
497,497,Ruska,,44.7951276,20.4358911,1,,0,,,0
498,498,Ruska,,44.7953388,20.4382263,1,,0,,,0
499,499,Gospodarska Mehana,,44.794467,20.433516,1,,0,,,0
500,500,Petlja Radnička,,44.792457,20.426729,1,,0,,,0
501,501,Petlja Radnička,,44.792212,20.427139,1,,0,,,0
502,502,Ada Ciganlija,,44.7886632,20.4192967,1,,0,,,0
503,503,Ada Ciganlija,,44.7885308,20.4200252,1,,0,,,0
504,504,Kirovljeva,,44.7836309,20.4177877,1,,0,,,0
505,505,Kirovljeva,,44.7848319,20.4179407,1,,0,,,0
506,506,Petra Lekovića,,44.7712629,20.4169694,1,,0,,,0
507,507,Petra Lekovića,,44.7713974,20.417074,1,,0,,,0
508,508,Žarkovačka,,44.7681045,20.4197922,1,,0,,,0
509,509,Žarkovačka,,44.7679514,20.4204138,1,,0,,,0
510,510,Sc  Košutnjak,,44.7643033,20.4279745,1,,0,,,0
511,511,Sc  Košutnjak,,44.7640738,20.4286656,1,,0,,,0
512,512,Pionirski Grad,,44.7594127,20.4328095,2,,0,,,0
513,513,Pionirski Grad,,44.7597628,20.4326446,2,,0,,,0
514,514,Luke Vojvodića,,44.7517698,20.4347266,2,,0,,,0
515,515,Luke Vojvodića,,44.7519899,20.4352034,2,,0,,,0
516,516,Miloja Zakića,,44.7503598,20.4331294,2,,0,,,0
517,517,Miloja Zakića,,44.7501493,20.4330964,2,,0,,,0
518,518,Ratka Mitrovića,,44.7483341,20.4308297,2,,0,,,0
519,519,Ratka Mitrovića,,44.7480558,20.4307261,2,,0,,,0
520,520,Pilota Mihajla Petrovića,,44.742673,20.424408,2,,0,,,0
521,521,Pilota Mihajla Petrovića,,44.7441919,20.4258075,2,,0,,,0
522,522,Mz Vidikovac,,44.7402545,20.4226335,2,,0,,,0
523,523,Mz Vidikovac,,44.7405106,20.4231855,2,,0,,,0
524,524,Vidikovački Venac,,44.7385005,20.4199622,2,,0,,,0
525,525,Vidikovački Venac,,44.7391168,20.4209972,2,,0,,,0
526,526,Toplana,,44.7336958,20.4206416,2,,0,,,0
527,527,Toplana,,44.7345939,20.4205813,2,,0,,,0
528,528,Vidikovac,,44.7318155,20.4204534,2,,0,,,0
529,529,Dorćol /Src Milan Gale Muškatirović/,,44.829826,20.456219,1,,0,,,0
530,530,Dušanova,,44.8194836,20.4652579,1,,0,,,0
531,531,Dušanova,,44.8190184,20.4647196,1,,0,,,0
532,532,Trg Republike,,44.815254,20.460356,1,,0,,,0
533,533,Trg Republike,,44.815426,20.460629,1,,0,,,0
534,534,Resavska,,44.8090817,20.4681338,1,,0,,,0
535,535,Glavna Pošta,,44.8100257,20.4671065,1,,0,,,0
536,536,Tašmajdan,,44.8080071,20.469022,1,,0,,,0
537,537,Tašmajdan,,44.8074422,20.4704006,1,,0,,,0
538,538,Cvetni Trg,,44.8048644,20.4668799,1,,0,,,0
539,539,Cvetni Trg,,44.804669,20.4673904,1,,0,,,0
540,540,Smiljanićeva,,44.8027952,20.4702699,1,,0,,,0
541,541,Smiljanićeva,,44.803103,20.4699829,1,,0,,,0
542,542,Bebelova,,44.7589284,20.4835177,1,,0,,,0
543,543,Bebelova,,44.758677,20.4833145,1,,0,,,0
544,544,Internacionalnih Brigada,,44.794713,20.4736858,1,,0,,,0
545,545,Neimar,,44.7940537,20.4732003,1,,0,,,0
546,546,Trg Republike,,44.8167296,20.4610996,1,,0,,,0
547,547,Karaburma 2,,44.8071294,20.5221709,1,,0,,,0
548,548,Src Makiš,,44.7849538,20.4062191,1,,0,,,0
549,549,Sup Palilula,,44.8171494,20.4937041,1,,0,,,0
550,550,Omladinski Stadion,,44.8140512,20.4901399,1,,0,,,0
551,551,Dalmatinska,,44.8071789,20.4805108,1,,0,,,0
552,552,Zemun (Novi Grad),,44.842156,20.3690196,2,,0,,,0
553,553,Dalmatinska,,44.8068004,20.4802449,1,,0,,,0
554,554,Blok 42,,44.8047019,20.417489,1,,0,,,0
555,555,"Pijaca ""Kalenić""",,44.7989795,20.4764307,1,,0,,,0
556,556,"Pijaca ""Kalenić""",,44.8008945,20.4770233,1,,0,,,0
557,557,Južni Bulevar,,44.7938406,20.4781533,1,,0,,,0
558,558,Južni Bulevar,,44.7930971,20.4783705,1,,0,,,0
559,559,Tetovska,,44.7894502,20.4805287,1,,0,,,0
560,560,Tetovska,,44.7901972,20.479992,1,,0,,,0
561,561,Dušanovac /Pošta/,,44.7859242,20.4821886,1,,0,,,0
562,562,Dušanovac /Pošta/,,44.7860323,20.4824242,1,,0,,,0
563,563,Husova,,44.7839972,20.4804305,1,,0,,,0
564,564,Husova,,44.7839351,20.4796962,1,,0,,,0
565,565,Pive Karamatijevića,,44.7658909,20.4913365,1,,0,,,0
566,566,Pive Karamatijevića,,44.7662356,20.4912648,1,,0,,,0
567,567,Voždovački Kružni Put,,44.762664,20.4901982,1,,0,,,0
568,568,Voždovački Kružni Put,,44.7626289,20.4905474,1,,0,,,0
569,569,Preduzeće Izolacija,,44.7592287,20.4941196,2,,0,,,0
570,570,Preduzeće Izolacija,,44.7598547,20.4937415,2,,0,,,0
571,571,Preduzeće Petar Velebit,,44.7561171,20.4974264,2,,0,,,0
572,572,Preduzeće Petar Velebit,,44.7565658,20.4972588,2,,0,,,0
573,573,Dušana Jovanovića ,,44.7539353,20.5000091,2,,0,,,0
574,574,Dušana Jovanovića ,,44.754257,20.4999568,2,,0,,,0
575,575,Put Za Kumodraško Groblje,,44.751807,20.5027088,2,,0,,,0
576,576,Put Za Kumodraško Groblje,,44.7524454,20.5021844,2,,0,,,0
577,577,Junska,,44.750033,20.500829,2,,0,,,0
578,578,Junska,,44.7500718,20.5011959,2,,0,,,0
579,579,Kumodraž 2,,44.7486843,20.4977415,2,,0,,,0
580,580,Kumodraž 2,,44.7488951,20.498781,2,,0,,,0
581,581,Studentski Trg,,44.8180342,20.4585599,1,,0,,,0
582,582,Pravni Fakultet,,44.8067733,20.4720613,1,,0,,,0
583,583,Pravni Fakultet,,44.8069763,20.4722237,1,,0,,,0
584,584,Tehnički Fakulteti,,44.8052785,20.475596,1,,0,,,0
585,585,Tehnički Fakulteti,,44.8052762,20.4762238,1,,0,,,0
586,586,Go Vračar,,44.8012551,20.4757195,1,,0,,,0
587,587,Miška Jovanovića,,44.7827495,20.4817932,1,,0,,,0
588,588,Miška Jovanovića,,44.7825046,20.4823354,1,,0,,,0
589,589,Peke Pavlovića,,44.7809349,20.4863151,1,,0,,,0
590,590,Peke Pavlovića,,44.78114,20.4859092,1,,0,,,0
591,591,Ignjata Joba,,44.7771267,20.4885356,1,,0,,,0
592,592,Ignjata Joba,,44.7776183,20.488299,1,,0,,,0
593,593,Centralno Groblje,,44.7743365,20.4917754,1,,0,,,0
594,594,Centralno Groblje,,44.7752847,20.4908486,1,,0,,,0
595,595,Jovana Bijelića,,44.7709665,20.493626,1,,0,,,0
596,596,Jovana Bijelića,,44.7720116,20.4932356,1,,0,,,0
597,597,Dragice Končar 1,,44.7698892,20.4963131,1,,0,,,0
598,598,Dragice Končar 1,,44.7698639,20.4965897,1,,0,,,0
599,599,Dragice Končar,,44.7681744,20.4997728,1,,0,,,0
600,600,Dragice Končar,,44.7684474,20.4993534,1,,0,,,0
601,601,Naselje Braće Jerković,,44.7646907,20.4995894,1,,0,,,0
602,602,Naselje Braće Jerković,,44.7653701,20.5002186,1,,0,,,0
603,603,Trg Republike,,44.8167591,20.4611689,1,,0,,,0
604,604,Milutina Milankovića,,44.8064941,20.4229915,1,,0,,,0
605,605,Nedeljka Gvozdenovića,,44.80747,20.362218,1,,0,,,0
606,606,Generala Aračića,,44.8138274,20.4972314,1,,0,,,0
607,607,Generala Aračića,,44.8140048,20.4964464,1,,0,,,0
608,608,Marijane Gregoran,,44.8133866,20.5002545,1,,0,,,0
609,609,Marijane Gregoran,,44.8133957,20.5005623,1,,0,,,0
610,610,Triglavska,,44.8116733,20.5069528,1,,0,,,0
611,611,Triglavska,,44.8118287,20.5068706,1,,0,,,0
612,612,Astronomska,,44.8080691,20.513938,1,,0,,,0
613,613,Astronomska,,44.8080102,20.5141904,1,,0,,,0
614,614,Ćalije,,44.805509,20.5172284,1,,0,,,0
615,615,Ćalije,,44.8049435,20.5179149,1,,0,,,0
616,616,Sime Trojanovića,,44.8019374,20.5194347,1,,0,,,0
617,617,Sime Trojanovića,,44.8023658,20.5194147,1,,0,,,0
618,618,Ladne Vode,,44.7943572,20.5235102,1,,0,,,0
619,619,Ladne Vode,,44.7952564,20.5231348,1,,0,,,0
620,620,Vitezova Karađorđeve Zvezde,,44.7925758,20.5246645,1,,0,,,0
621,621,Vitezova Karađorđeve Zvezde,,44.7925739,20.525188,1,,0,,,0
622,622,Selište,,44.7901292,20.5275078,2,,0,,,0
623,623,Selište,,44.7906823,20.5276567,2,,0,,,0
624,624,Stojčino Brdo,,44.7892596,20.5309136,2,,0,,,0
625,625,Stojčino Brdo,,44.7894304,20.5300284,2,,0,,,0
626,626,Mirijevski Venac,,44.789526,20.5336256,2,,0,,,0
627,627,Mirijevski Venac,,44.7894206,20.5332865,2,,0,,,0
628,628,Mirijevo 2,,44.7912061,20.5331664,2,,0,,,0
629,629,Mirijevo 2,,44.7913107,20.5328756,2,,0,,,0
630,630,Mirijevo,,44.793798,20.5316637,2,,0,,,0
632,632,Omladinski Stadion,,44.8154067,20.4911699,1,,0,,,0
633,633,Aleksandra Belića,,44.7885013,20.5443063,2,,0,,,0
634,634,Aleksandra Belića,,44.7888178,20.5434897,2,,0,,,0
635,635,Milivoja Perovića,,44.787672,20.5464131,2,,0,,,0
636,636,Mirijevo 4,,44.7859549,20.5459943,2,,0,,,0
637,637,Mirijevo 4,,44.786038,20.545661,2,,0,,,0
638,638,Birčaninova,,44.800703,20.465475,1,,0,,,0
639,639,Franše Deperea,,44.7928916,20.4666329,1,,0,,,0
640,640,Južni Bulevar,,44.7906968,20.4698737,1,,0,,,0
641,641,Stratimirovićeva,,44.7895103,20.4720021,1,,0,,,0
642,642,Go Voždovac,,44.7872705,20.4781826,1,,0,,,0
643,643,Dušanovac /Pošta/,,44.7860235,20.4813998,1,,0,,,0
644,644,Katarine Ivanović,,44.7783633,20.4897689,1,,0,,,0
645,645,Katarine Ivanović,,44.7786479,20.4892005,1,,0,,,0
646,646,Umljenovićeva,,44.7770249,20.4938081,1,,0,,,0
647,647,Umljenovićeva,,44.777583,20.4937994,1,,0,,,0
648,648,Medaković 2,,44.7751731,20.4979736,1,,0,,,0
649,649,Medaković 2,,44.7754026,20.4984676,1,,0,,,0
650,650,Studentski Trg,,44.8194912,20.4570246,1,,0,,,0
651,651,Mz Makiš,,44.7708556,20.3619025,2,,0,,,0
652,652,Mz Makiš,,44.7709295,20.3623122,2,,0,,,0
653,653,Dom Zdravlja Voždovac,,44.7839795,20.4919064,1,,0,,,0
654,654,Vukov Spomenik,,44.8048058,20.4795731,1,,0,,,0
655,655,Vojvode Micka Krstića,,44.8176139,20.5029607,1,,0,,,0
656,656,Vojvode Micka Krstića,,44.8178861,20.5028059,1,,0,,,0
657,657,Diljska,,44.817401,20.5110422,1,,0,,,0
658,658,Diljska,,44.8177121,20.5095702,1,,0,,,0
659,659,Put Za Adu Huju,,44.8174651,20.5143129,1,,0,,,0
660,660,Put Za Adu Huju,,44.8176663,20.5139665,1,,0,,,0
661,661,Mirijevski Bulevar,,44.817457,20.5197072,1,,0,,,0
662,662,Mirijevski Bulevar,,44.8177404,20.5193263,1,,0,,,0
663,663,Rospi Ćuprija,,44.8181246,20.5236641,2,,0,,,0
664,664,Rospi Ćuprija,,44.8179974,20.5217595,2,,0,,,0
665,665,Marina,,44.8187948,20.5265301,2,,0,,,0
666,666,Marina,,44.8189258,20.5267459,2,,0,,,0
667,667,Višnjička Banja,,44.8215448,20.5367952,2,,0,,,0
668,668,Višnjička Banja,,44.8218907,20.5372008,2,,0,,,0
669,669,Despotovačka,,44.8242885,20.5411132,2,,0,,,0
670,670,Despotovačka,,44.8246593,20.5413311,2,,0,,,0
671,671,Lovačka,,44.8272108,20.543968,2,,0,,,0
672,672,Lovačka,,44.8276283,20.5441431,2,,0,,,0
673,673,Višnjica,,44.8308667,20.5482494,2,,0,,,0
674,674,Trg Republike,,44.8166002,20.4608701,1,,0,,,0
675,675,Agro-Koka,,44.885416,20.517165,2,,0,,,0
676,676,Milića Marinovića,,44.7553439,20.4900586,2,,0,,,0
677,677,Milića Marinovića,,44.7560822,20.4891314,2,,0,,,0
678,678,Beranska,,44.7524334,20.4922966,2,,0,,,0
679,679,Beranska,,44.7536477,20.4917192,2,,0,,,0
680,680,Kalemarska,,44.7418986,20.5001703,2,,0,,,0
681,681,Kumodraž 2,,44.7487096,20.4953619,2,,0,,,0
682,682,Institut Torlak,,44.7456243,20.4974992,2,,0,,,0
683,683,Institut Torlak,,44.7460653,20.4973412,2,,0,,,0
684,684,Oktobarska,,44.7398335,20.5026407,2,,0,,,0
685,685,Oktobarska,,44.7405214,20.501638,2,,0,,,0
686,686,Palih Boraca,,44.7173302,20.4483386,2,,0,,,0
687,687,Src Makiš,,44.7850553,20.4056533,1,,0,,,0
688,688,Mz Kumodraž,,44.7390216,20.5075537,2,,0,,,0
689,689,Mz Kumodraž,,44.7389765,20.5069036,2,,0,,,0
690,690,Zemljoradnička,,44.7398848,20.5104219,2,,0,,,0
691,691,Zemljoradnička,,44.7397497,20.5100868,2,,0,,,0
692,692,Kovačka,,44.7413576,20.5135399,2,,0,,,0
693,693,Kovačka,,44.7413493,20.5127745,2,,0,,,0
694,694,Kumodraž 1,,44.742094,20.515764,2,,0,,,0
695,695,Kumodraž 1,,44.7426091,20.5159225,2,,0,,,0
696,696,Sp Lasta,,44.7721637,20.5188017,2,,0,,,0
697,697,Šesti Prilaz,,44.8648147,20.4429809,2,,0,,,0
698,698,Vojvode Dobrnjca,,44.8197655,20.4726685,1,,0,,,0
699,699,Vojvode Dobrnjca,,44.8194821,20.4742116,1,,0,,,0
700,700,Gundulićev Venac,,44.8200292,20.4703998,1,,0,,,0
701,701,Gundulićev Venac,,44.8199777,20.4699327,1,,0,,,0
702,702,Trg Republike,,44.816311,20.460943,1,,0,,,0
703,703,Pionirski Park,,44.8109786,20.4651204,1,,0,,,0
704,704,Pionirski Park,,44.812148,20.4640358,1,,0,,,0
705,705,Voždovac,,44.761061,20.4848131,1,,0,,,0
706,706,Palata Pravde,,44.8042803,20.4530846,1,,0,,,0
707,707,Bulevar Umetnosti,,44.819998,20.4134687,1,,0,,,0
708,708,Milivoja Perovića,,44.7884994,20.5461042,2,,0,,,0
709,709,Žel. St. Dunav -Okretnica,,44.8188181,20.4798844,1,,0,,,0
712,712,Luka Beograd,,44.8245064,20.4723281,1,,0,,,0
713,713,Tempo,,44.823467,20.4850109,1,,0,,,0
714,714,Knežopoljska,,44.8213086,20.4770949,1,,0,,,0
715,715,Knežopoljska,,44.8214691,20.477491,1,,0,,,0
716,716,Viline Vode,,44.8213535,20.4853486,1,,0,,,0
717,717,Viline Vode,,44.821472,20.4843004,1,,0,,,0
718,718,Klanički Kej,,44.8213393,20.4883999,1,,0,,,0
719,719,Klanički Kej,,44.8214505,20.4891967,1,,0,,,0
720,720,Železnička Stanica Dunav,,44.8190574,20.4815037,1,,0,,,0
721,721,Železnička Stanica Dunav,,44.81922,20.479554,1,,0,,,0
722,722,Julino Brdo,,44.7624737,20.4140289,2,,0,,,0
723,723,Julino Brdo,,44.7637564,20.4138667,2,,0,,,0
724,724,Žarkovo,,44.7586385,20.4165381,2,,0,,,0
725,725,Žarkovo,,44.759618,20.415433,2,,0,,,0
726,726,Ace Joksimovića,,44.7566044,20.420245,2,,0,,,0
727,727,Ace Joksimovića,,44.7571394,20.4194042,2,,0,,,0
728,728,Ratka Mitrovića,,44.7528262,20.4251557,2,,0,,,0
729,729,Ratka Mitrovića,,44.754037,20.4240277,2,,0,,,0
730,730,Kneza Višeslava,,44.7478628,20.429898,2,,0,,,0
731,731,Kneza Višeslava,,44.7482932,20.4296513,2,,0,,,0
732,732,Pilota Mihajla Petrovića,,44.7430213,20.4263376,2,,0,,,0
733,733,Mirijevo 3,,44.7937508,20.5366585,2,,0,,,0
734,734,Janković Stojana,,44.744995,20.434256,2,,0,,,0
735,735,Janković Stojana,,44.7451269,20.4342108,2,,0,,,0
736,736,Marička,,44.745339,20.4382987,2,,0,,,0
737,737,Marička,,44.7454252,20.4379685,2,,0,,,0
738,738,Miška Kranjca,,44.7430251,20.4420271,2,,0,,,0
739,739,Miška Kranjca,,44.7429079,20.4427643,2,,0,,,0
740,740,Ulica Oslobođenja ,,44.7380046,20.4389012,2,,0,,,0
741,741,Ulica Oslobođenja ,,44.7381267,20.4389641,2,,0,,,0
742,742,Kralja Radoslava,,44.9004,20.27881,2,,0,,,0
743,743,Palilulska Pijaca,,44.810416,20.474482,1,,0,,,0
744,744,Šumice - Okretnica,,44.7840049,20.5003617,1,,0,,,0
745,745,Pogon Kosmaj,,44.771699,20.51796,2,,0,,,0
746,746,Franše Deperea,,44.7926283,20.4664199,1,,0,,,0
747,747,Vatrosprem,,44.764868,20.4877203,1,,0,,,0
748,748,Vatrosprem,,44.764735,20.4881694,1,,0,,,0
749,749,Cvetna,,44.7420992,20.5042851,2,,0,,,0
750,750,Kumodraž 1,,44.7441149,20.5013299,2,,0,,,0
751,751,Trg Oslobođenja,,44.7870448,20.4639596,1,,0,,,0
752,752,Trg Oslobođenja,,44.7873798,20.4644236,1,,0,,,0
753,753,Stadion Rajko Mitić,,44.7841789,20.4627107,1,,0,,,0
754,754,Stadion Rajko Mitić,,44.7831103,20.4630022,1,,0,,,0
755,755,Šekspirova,,44.7815187,20.4599303,1,,0,,,0
756,756,Narodnog Heroja Milana Tepića,,44.7796287,20.4586373,1,,0,,,0
757,757,Šolina,,44.7714815,20.454135,1,,0,,,0
758,758,Šolina,,44.7717786,20.4545064,1,,0,,,0
759,759,Baje Pivljanina,,44.7695853,20.455309,1,,0,,,0
760,760,Baje Pivljanina,,44.7695445,20.455816,1,,0,,,0
761,761,Dedinje /Ortopedska Bolnica/,,44.7668959,20.4622942,1,,0,,,0
762,762,Dedinje /Ortopedska Bolnica/,,44.7674638,20.4619944,1,,0,,,0
763,763,Šesti Prilaz,,44.8652204,20.4437049,2,,0,,,0
764,764,Blok Sutjeska,,44.8495035,20.4863742,1,,0,,,0
765,765,Partizanski Blok,,44.8459475,20.4882054,1,,0,,,0
766,766,Partizanski Blok,,44.8464523,20.4882414,1,,0,,,0
767,767,"Blok ""Branko Momirov""",,44.841079,20.4908256,1,,0,,,0
768,768,"Blok ""Branko Momirov""",,44.8414484,20.4909272,1,,0,,,0
769,769,Mz Krnjača,,44.8377902,20.4940254,1,,0,,,0
770,770,Kozjačka,,44.793744,20.4477741,1,,0,,,0
771,771,Dr Ivana Ribara,,44.7982096,20.3724116,1,,0,,,0
772,772,Blok 25,,44.8136937,20.4247301,1,,0,,,0
773,773,Topčiderska Zvezda,,44.7893974,20.4438252,1,,0,,,0
774,774,Topčiderska Zvezda,,44.7887993,20.4441808,1,,0,,,0
775,775,Vase Pelagića,,44.7890734,20.4409122,1,,0,,,0
776,776,Vase Pelagića,,44.7887687,20.4408336,1,,0,,,0
777,777,Vojislava Vučkovića,,44.7917807,20.4415174,1,,0,,,0
778,778,Vojislava Vučkovića,,44.7926263,20.4417791,1,,0,,,0
779,779,Senjačka,,44.7943832,20.4425779,1,,0,,,0
780,780,Topčidersko Brdo /Senjak/,,44.7957633,20.4430689,1,,0,,,0
781,781,Konjarnik,,44.7823519,20.510447,1,,0,,,0
782,782,Blok 45,,44.7930673,20.3750251,1,,0,,,0
783,783,Blok 45,,44.792767,20.375171,1,,0,,,0
784,784,Dr Ivana Ribara 1,,44.7959344,20.3728771,1,,0,,,0
785,785,Dr Ivana Ribara 1,,44.7967108,20.3720194,1,,0,,,0
786,786,Oš Branko Radičević,,44.7996865,20.3757433,1,,0,,,0
787,787,Oš Branko Radičević,,44.7997329,20.3749094,1,,0,,,0
788,788,Nehruova,,44.8012559,20.3800824,1,,0,,,0
789,789,Nehruova,,44.8014933,20.3796797,1,,0,,,0
790,790,Gandijeva,,44.8034199,20.3890024,1,,0,,,0
791,791,Gandijeva,,44.8033198,20.3866705,1,,0,,,0
792,792,Blok 70,,44.8040762,20.3939778,1,,0,,,0
793,793,Blok 70,,44.8043798,20.3935657,1,,0,,,0
794,794,Omladinskih Brigada,,44.8043512,20.3983119,1,,0,,,0
795,795,Omladinskih Brigada,,44.8046832,20.3980832,1,,0,,,0
796,796,Tehnička Škola Novi Beograd,,44.8089515,20.3997271,1,,0,,,0
797,797,Tehnička Škola Novi Beograd,,44.8081435,20.3990389,1,,0,,,0
798,798,Erport Siti,,44.8118706,20.4021704,1,,0,,,0
799,799,Erport Siti,,44.811176,20.4011323,1,,0,,,0
800,800,Milutina Milankovića,,44.8162542,20.4061368,1,,0,,,0
801,801,Milutina Milankovića,,44.816068,20.4055677,1,,0,,,0
802,802,Dušanova,,44.8490875,20.4017395,1,,0,,,0
803,803,Dušanova,,44.8481934,20.4031391,1,,0,,,0
804,804,Ugrinovačka,,44.8465812,20.3992346,1,,0,,,0
805,805,Ugrinovačka,,44.8460706,20.4013506,1,,0,,,0
806,806,Stadion Zemun,,44.8478069,20.3959237,1,,0,,,0
807,807,Stadion Zemun,,44.8472624,20.3969894,1,,0,,,0
808,808,Branka Pešića,,44.8494591,20.3911438,1,,0,,,0
809,809,Branka Pešića,,44.849022,20.3921519,1,,0,,,0
810,810,Filipa Višnjića,,44.8499568,20.3874237,1,,0,,,0
811,811,Filipa Višnjića,,44.8498757,20.3869352,1,,0,,,0
812,812,Rada Končara /Dom Zdravlja/,,44.8460935,20.3860977,1,,0,,,0
813,813,Rada Končara /Dom Zdravlja/,,44.8451504,20.3855219,1,,0,,,0
814,814,Oš Petar Kočić,,44.8426843,20.3848178,1,,0,,,0
815,815,Krajiška,,44.8386669,20.3835525,1,,0,,,0
816,816,Krajiška,,44.8382207,20.3836224,1,,0,,,0
817,817,Atanasija Pulje,,44.8357288,20.38196,1,,0,,,0
818,818,Železnička Stanica Zemun,,44.836638,20.3751832,1,,0,,,0
819,819,Železnička Stanica Zemun,,44.8367342,20.3749638,1,,0,,,0
820,820,Beogradska Arena,,44.8153037,20.4202702,1,,0,,,0
821,821,Beogradska Arena,,44.8144958,20.4192192,1,,0,,,0
822,822,Vidikovac,,44.732287,20.420461,2,,0,,,0
823,823,Mihajla Gavrilovića,,44.7921824,20.4715114,1,,0,,,0
824,824,Mihajla Gavrilovića,,44.7925203,20.4719894,1,,0,,,0
825,825,Maksima Gorkog,,44.793512,20.479543,1,,0,,,0
826,826,Maksima Gorkog,,44.793315,20.4764889,1,,0,,,0
827,827,Mpi,,44.7936765,20.4811182,1,,0,,,0
828,828,Đerdapska,,44.7931827,20.4850488,1,,0,,,0
829,829,Đerdapska,,44.7929631,20.4866482,1,,0,,,0
830,830,Škola Vojislav Ilić,,44.7912874,20.4967168,1,,0,,,0
831,831,Škola Vojislav Ilić,,44.791386,20.4968017,1,,0,,,0
832,832,Zvezdara,,44.7929227,20.5036879,1,,0,,,0
833,833,Zvezdara,,44.7929829,20.5034155,1,,0,,,0
834,834,Dušana Radovića,,44.7916736,20.5208994,1,,0,,,0
835,835,Dušana Radovića,,44.7918792,20.5204471,1,,0,,,0
836,836,Železnička Stanica Dunav,,44.818369,20.4800423,1,,0,,,0
837,837,Hala Aleksandar Nikolić,,44.8147376,20.4823046,1,,0,,,0
838,838,Cvijićeva,,44.811755,20.4797628,1,,0,,,0
839,839,Cvijićeva,,44.8118016,20.4801512,1,,0,,,0
840,840,27. Marta,,44.8101597,20.4763353,1,,0,,,0
841,841,27. Marta,,44.8098066,20.4759611,1,,0,,,0
842,842,Pravni Fakultet,,44.8077555,20.4721031,1,,0,,,0
843,843,Kosmajska,,44.71509,20.32267,2,,0,,,0
844,844,Blok 25,,44.8128615,20.423643,1,,0,,,0
845,845,Trg Oslobođenja,,44.7850675,20.4657995,1,,0,,,0
846,846,Trg Oslobođenja,,44.7870622,20.4659346,1,,0,,,0
847,847,Veljka Lukića Kurjaka,,44.7794098,20.4685478,1,,0,,,0
848,848,Veljka Lukića Kurjaka,,44.780183,20.4683487,1,,0,,,0
849,849,Atletska Dvorana,,44.77631,20.472644,1,,0,,,0
850,850,Atletska Dvorana,,44.7776122,20.4716482,1,,0,,,0
851,851,Fakultet Organizacionih Nauka,,44.7704322,20.4759382,1,,0,,,0
852,852,Fakultet Organizacionih Nauka,,44.7713484,20.4756766,1,,0,,,0
853,853,Crkva Sv. Vasilija Ostroškog,,44.7623852,20.4792343,1,,0,,,0
854,854,Crkva Sv. Vasilija Ostroškog,,44.7623237,20.4796278,1,,0,,,0
855,855,Paunova,,44.761167,20.474962,1,,0,,,0
856,856,Paunova,,44.7609453,20.4769771,1,,0,,,0
857,857,Pet Solitera,,44.7594333,20.4729718,1,,0,,,0
858,858,Pet Solitera,,44.7600233,20.4731316,1,,0,,,0
859,859,Mosorska,,44.7652257,20.4779272,1,,0,,,0
860,860,Mosorska,,44.7656752,20.4780828,1,,0,,,0
861,861,Raška,,44.754654,20.468089,1,,0,,,0
862,862,Raška,,44.754495,20.470122,1,,0,,,0
863,863,Pere Velimirovića,,44.7571917,20.4599943,1,,0,,,0
864,864,Pere Velimirovića,,44.7570731,20.4612479,1,,0,,,0
865,865,Srpskih Udarnih Brigada,,44.7540283,20.4560627,2,,0,,,0
866,866,Srpskih Udarnih Brigada,,44.7549261,20.4571937,2,,0,,,0
867,867,Kanarevo Brdo,,44.7520267,20.4550904,2,,0,,,0
868,868,Kanarevo Brdo,,44.7528769,20.4553038,2,,0,,,0
869,869,Vareška,,44.7498179,20.4557271,2,,0,,,0
870,870,Vareška,,44.7489923,20.4557395,2,,0,,,0
871,871,Stanka Paunovića,,44.7484724,20.4521663,2,,0,,,0
872,872,Stanka Paunovića,,44.7484733,20.4535246,2,,0,,,0
873,873,Miljakovac 1,,44.7482174,20.4495814,2,,0,,,0
874,874,Miljakovac 1,,44.74815,20.450059,2,,0,,,0
875,875,Go Rakovica,,44.7437088,20.4460663,2,,0,,,0
876,876,Go Rakovica,,44.7432588,20.4451589,2,,0,,,0
877,877,Servis Dmb,,44.7359372,20.4449117,2,,0,,,0
878,878,Servis Dmb,,44.7360715,20.4449955,2,,0,,,0
879,879,Manastir Rakovica,,44.7322297,20.4468805,2,,0,,,0
880,880,Manastir Rakovica,,44.7314066,20.4473518,2,,0,,,0
881,881,Josipa Telarevića (Izlaz),,44.7280608,20.4474432,2,,0,,,0
882,882,Josipa Telarevića (Izlaz),,44.7270844,20.4484715,2,,0,,,0
883,883,Tunel Straževica,,44.724886,20.4498968,2,,0,,,0
884,884,Tunel Straževica,,44.7247381,20.4506226,2,,0,,,0
888,888,Resnik /Ulaz/,,44.716548,20.465422,2,,0,,,0
889,889,Avalska,,44.714348,20.4594453,2,,0,,,0
890,890,Avalska,,44.7142727,20.4596094,2,,0,,,0
891,891,Kamenac,,44.7125193,20.4562332,2,,0,,,0
892,892,Kamenac,,44.7126115,20.4566565,2,,0,,,0
893,893,13.Oktobra,,44.7105954,20.4525615,2,,0,,,0
894,894,13.Oktobra,,44.7106508,20.4529309,2,,0,,,0
895,895,Aleksandra Vojinovića,,44.7068981,20.4512169,2,,0,,,0
896,896,Aleksandra Vojinovića,,44.7066381,20.4511579,2,,0,,,0
897,897,Železnička Stanica Resnik,,44.7044394,20.4493698,2,,0,,,0
898,898,Železnička Stanica Resnik,,44.7046553,20.4496399,2,,0,,,0
899,899,Slavoljuba Vuksanovića,,44.7479037,20.456754,2,,0,,,0
900,900,Slavoljuba Vuksanovića,,44.7484269,20.4569117,2,,0,,,0
901,901,Narod. Heroja Velizara Stankovića,,44.7457662,20.4582822,2,,0,,,0
902,902,Narod. Heroja Velizara Stankovića,,44.7459192,20.4581367,2,,0,,,0
903,903,Miljakovac 2,,44.7477034,20.460939,2,,0,,,0
904,904,Miljakovac 2,,44.7477196,20.4598773,2,,0,,,0
905,905,Bistrička,,44.810322,20.480288,1,,0,,,0
906,906,Ustanička,,44.7848775,20.5170981,1,,0,,,0
907,907,Bulevar Peka Dapčevića,,44.7628118,20.4893037,1,,0,,,0
908,908,Bulevar Peka Dapčevića,,44.763292,20.4904841,1,,0,,,0
909,909,Trošarina,,44.7616194,20.4833105,1,,0,,,0
910,910,Trošarina,,44.7614,20.482889,1,,0,,,0
911,911,Železnik R,,44.7422268,20.3588326,2,,0,,,0
912,912,Nemanjina,,44.807932,20.458323,1,,0,,,0
913,913,Drinska,,44.8009423,20.4518482,1,,0,,,0
914,914,Žarkovo,,44.7585149,20.4150897,2,,0,,,0
915,915,Braće Vučković,,44.753445,20.4135223,2,,0,,,0
916,916,Braće Vučković,,44.7547263,20.4147091,2,,0,,,0
917,917,Zdravka Jovanovića,,44.7491707,20.4110274,2,,0,,,0
918,918,Zdravka Jovanovića,,44.7491149,20.4107491,2,,0,,,0
919,919,Crveno Barjače,,44.7505014,20.4073662,2,,0,,,0
920,920,Crveno Barjače,,44.7500432,20.4081044,2,,0,,,0
921,921,Belo Vrelo,,44.7506364,20.4051137,2,,0,,,0
922,922,Belo Vrelo,,44.7508201,20.4054481,2,,0,,,0
923,923,Bele Vode,,44.7481811,20.4031769,2,,0,,,0
924,924,Bele Vode,,44.7481515,20.4031172,2,,0,,,0
925,925,Trg Slavija /Nemanjina/,,44.8033579,20.4644407,1,,0,,,0
926,926,Trg Slavija /Nemanjina/,,44.8030568,20.4644746,1,,0,,,0
927,927,Nedeljka Gvozdenovića,,44.815158,20.3730491,1,,0,,,0
928,928,Šavnička,,44.7499637,20.4230639,2,,0,,,0
929,929,Šavnička,,44.7503553,20.4239485,2,,0,,,0
930,930,Ljubice Ivošević,,44.7490258,20.4204904,2,,0,,,0
931,931,Ljubice Ivošević,,44.7488858,20.4203318,2,,0,,,0
932,932,Ostružnica 1,,44.7336348,20.3209809,2,,0,,,0
933,933,Zeleni Venac,,44.8138499,20.4572432,1,,0,,,0
934,934,Zeleni Venac,,44.8140367,20.4559029,1,,0,,,0
935,935,Kosmajska,,44.71553,20.32249,2,,0,,,0
936,936,Miloša Pocerca,,44.8035737,20.4550267,1,,0,,,0
937,937,Vidikovac,,44.7319704,20.4206381,2,,0,,,0
938,938,Kanarevo Brdo /Dom Zdravlja/,,44.7547445,20.4539311,2,,0,,,0
939,939,Oš Đura Jakšić,,44.7532699,20.4508803,2,,0,,,0
940,940,Božidara Stojanovića,,44.7501922,20.4527367,2,,0,,,0
941,941,Ulica Oslobođenja ,,44.7390507,20.438543,2,,0,,,0
942,942,Ulica Oslobođenja ,,44.7386106,20.4375226,2,,0,,,0
943,943,Kneževac,,44.7346288,20.4314202,2,,0,,,0
944,944,Kneževac,,44.73443,20.43158,2,,0,,,0
945,945,Vijadukt,,44.725595,20.4339951,2,,0,,,0
946,946,Vijadukt,,44.7254519,20.4341791,2,,0,,,0
947,947,Usek,,44.7201823,20.4319995,2,,0,,,0
948,948,Usek,,44.7204223,20.4324576,2,,0,,,0
949,949,Petlovo Brdo,,44.7179022,20.4231251,2,,0,,,0
950,950,Petlovo Brdo,,44.7173099,20.4244657,2,,0,,,0
951,951,Dorćol /Src Milan Gale Muškatirović/,,44.829468,20.455898,1,,0,,,0
952,952,Dorćol /Src Milan Gale Muškatirović/,,44.829666,20.455914,1,,0,,,0
953,953,Novo Naselje,,44.7259969,20.3912896,2,,0,,,0
954,954,Novo Naselje,,44.7255961,20.3919309,2,,0,,,0
955,955,Avalska,,44.7287909,20.3825001,2,,0,,,0
956,956,Avalska,,44.7287033,20.3833833,2,,0,,,0
957,957,Železnik /Centar/,,44.7286873,20.3754987,2,,0,,,0
958,958,Železnik /Centar/,,44.7285767,20.3764117,2,,0,,,0
959,959,Pijaca,,44.7272183,20.37414,2,,0,,,0
960,960,Ivo Lola Ribar,,44.7276072,20.3680559,2,,0,,,0
961,961,Ivo Lola Ribar,,44.7274241,20.3680263,2,,0,,,0
962,962,Privredna Zona Makiš,,44.7578586,20.3463649,2,,0,,,0
963,963,Ostružnica 2,,44.7236793,20.314483,2,,0,,,0
964,964,Pećani,,44.6965594,20.3168178,2,,0,,,0
965,965,Umka - Centar,,44.6798847,20.3047933,2,,0,,,0
966,966,Svetolika Lazarevića Laze,,44.7837383,20.4123033,1,,0,,,0
967,967,Svetolika Lazarevića Laze,,44.7843556,20.4126008,1,,0,,,0
968,968,Obalskih Radnika,,44.7805708,20.4092899,1,,0,,,0
969,969,Obalskih Radnika,,44.7813784,20.4098047,1,,0,,,0
970,970,Mz Čukarička Padina,,44.7766121,20.4077906,1,,0,,,0
971,971,Mz Čukarička Padina,,44.7774057,20.4082504,1,,0,,,0
972,972,Umka - Izlaz,,44.6852242,20.3122827,2,,0,,,0
973,973,Umka - Karađorđeva,,44.6903786,20.3191583,2,,0,,,0
974,974,Inos,,44.7691962,20.4073888,2,,0,,,0
975,975,Inos,,44.76993,20.4078631,2,,0,,,0
976,976,Kontaktor,,44.7669575,20.4064846,2,,0,,,0
977,977,Kontaktor,,44.7665691,20.4065033,2,,0,,,0
978,978,Ateks,,44.7624492,20.4045437,2,,0,,,0
979,979,Ateks,,44.7637503,20.4053148,2,,0,,,0
980,980,Bele Vode,,44.7550123,20.4036674,2,,0,,,0
981,981,Bele Vode,,44.7554597,20.4037572,2,,0,,,0
982,982,Železnički Tunel,,44.7493914,20.4001929,2,,0,,,0
983,983,Železnički Tunel,,44.7494889,20.4004267,2,,0,,,0
984,984,Rupčine,,44.7465126,20.3964535,2,,0,,,0
985,985,Rupčine,,44.7465555,20.3967977,2,,0,,,0
986,986,Put Za Žtp,,44.7408829,20.3892951,2,,0,,,0
987,987,Put Za Žtp,,44.7419026,20.3908599,2,,0,,,0
988,988,Ranžirna Stanica,,44.7379443,20.385615,2,,0,,,0
989,989,Ranžirna Stanica,,44.7375814,20.3852854,2,,0,,,0
990,990,Železnik /Ulaz/,,44.735367,20.380266,2,,0,,,0
991,991,Železnik /Ulaz/,,44.7355933,20.3810972,2,,0,,,0
992,992,Železnik (Zlatanovići),,44.7343503,20.376402,2,,0,,,0
993,993,Železnik (Zlatanovići),,44.7342422,20.3762321,2,,0,,,0
994,994,Braće Mitrović ,,44.7320595,20.3697744,2,,0,,,0
995,995,Braće Mitrović ,,44.7323738,20.3706879,2,,0,,,0
996,996,Mz Novi Železnik,,44.7297667,20.38293,2,,0,,,0
997,997,Mz Novi Železnik,,44.7292983,20.3829083,2,,0,,,0
998,998,Novi Železnik,,44.732139,20.380188,2,,0,,,0
999,999,Novi Železnik,,44.7317226,20.3793669,2,,0,,,0
1000,1000,Vodovodska,,44.7656681,20.412956,1,,0,,,0
1001,1001,Vodovodska,,44.7654463,20.4127698,1,,0,,,0
1002,1002,Valjevska,,44.771257,20.4101013,1,,0,,,0
1003,1003,Valjevska,,44.7703027,20.4106806,1,,0,,,0
1004,1004,Narodnih Heroja,,44.8164048,20.4013666,1,,0,,,0
1005,1005,Čukarička Padina,,44.778096,20.404921,1,,0,,,0
1006,1006,Stevana Đurđevića,,44.776323,20.405422,1,,0,,,0
1007,1007,Jkp Zelenilo Beograd,,44.8253818,20.3813123,1,,0,,,0
1008,1008,Zeleni Venac,,44.8139208,20.4566381,1,,0,,,0
1009,1009,Jablanička,,44.7480175,20.4117891,2,,0,,,0
1010,1010,Jablanička,,44.7498175,20.4122438,2,,0,,,0
1011,1011,Kneževac,,44.7336071,20.4195114,2,,0,,,0
1012,1012,Kneževac,,44.7352644,20.4193438,2,,0,,,0
1013,1013,Labudovo Brdo,,44.7304693,20.4221902,2,,0,,,0
1014,1014,Labudovo Brdo,,44.7306373,20.4215285,2,,0,,,0
1015,1015,Serdar Janka Vukotića,,44.7272441,20.4259799,2,,0,,,0
1016,1016,Serdar Janka Vukotića,,44.7280274,20.4257612,2,,0,,,0
1017,1017,Jedanaeste Krajiške Divizije,,44.7262392,20.4258557,2,,0,,,0
1018,1018,Jedanaeste Krajiške Divizije,,44.7261312,20.4262854,2,,0,,,0
1019,1019,Generala Zgonjanina,,44.724727,20.4222863,2,,0,,,0
1020,1020,Generala Zgonjanina,,44.7251427,20.4232776,2,,0,,,0
1021,1021,Milorada Draškovića,,44.7215544,20.4211475,2,,0,,,0
1022,1022,Milorada Draškovića,,44.722028,20.421255,2,,0,,,0
1023,1023,Rasinska,,44.720133,20.4254485,2,,0,,,0
1024,1024,Rasinska,,44.7203056,20.4251382,2,,0,,,0
1025,1025,Petlovo Brdo,,44.7184798,20.4283188,2,,0,,,0
1026,1026,Petlovo Brdo,,44.7184276,20.4286759,2,,0,,,0
1027,1027,Banovo Brdo,,44.768232,20.4137316,2,,0,,,0
1028,1028,Vojno Medicinski Centar,,44.7463191,20.428285,2,,0,,,0
1029,1029,Hotel Nacional,,44.8270457,20.3854587,1,,0,,,0
1030,1030,Hotel Nacional,,44.8266559,20.3860334,1,,0,,,0
1031,1031,Jkp Zelenilo Beograd,,44.8257814,20.3816324,1,,0,,,0
1032,1032,Robni Terminal,,44.8170887,20.2886535,2,,0,,,0
1033,1033,Bežanijska Kosa /Groblje/,,44.8176097,20.3714308,1,,0,,,0
1034,1034,Cvijićeva,,44.8176366,20.476838,1,,0,,,0
1035,1035,Julino Brdo,,44.7631557,20.4107816,2,,0,,,0
1036,1036,Julino Brdo,,44.7634942,20.4114119,2,,0,,,0
1037,1037,Ilije Đuričića,,44.759993,20.4068707,2,,0,,,0
1038,1038,Ilije Đuričića,,44.7597603,20.4068226,2,,0,,,0
1039,1039,Bele Vode,,44.7556103,20.4043199,2,,0,,,0
1040,1040,Bele Vode,,44.7554,20.4043767,2,,0,,,0
1041,1041,Železnička Stanica Bgd Centar,,44.7927501,20.4539061,1,,0,,,0
1042,1042,Biodekor,,44.8064572,20.3522469,1,,0,,,0
1043,1043,Bulevar Kneza Aleksandra Karađorđevića,,44.7900716,20.4560157,1,,0,,,0
1044,1044,Bulevar Kneza Aleksandra Karađorđevića,,44.7899098,20.4559816,1,,0,,,0
1045,1045,Aerodrom Nikola Tesla,,44.818815,20.29056,2,,0,,,0
1046,1046,Novo Naselje,,44.8135958,20.5416195,2,,0,,,0
1047,1047,Zeleni Venac,,44.8140577,20.4555803,1,,0,,,0
1048,1048,Njegoševa,,44.8855633,20.5361939,2,,0,,,0
1049,1049,Zeleni Venac,,44.8141258,20.4576279,1,,0,,,0
1050,1050,Staro Sajmište,,44.8121703,20.441502,1,,0,,,0
1051,1051,Staro Sajmište,,44.8121418,20.4416695,1,,0,,,0
1052,1052,Slavka Šlandera,,44.8093699,20.4433806,1,,0,,,0
1053,1053,Slavka Šlandera,,44.8094869,20.4435748,1,,0,,,0
1054,1054,Most Gazela,,44.8053747,20.4394717,1,,0,,,0
1055,1055,Most Gazela,,44.8054016,20.4396869,1,,0,,,0
1056,1056,Železnički Most Sava,,44.803394,20.4364057,1,,0,,,0
1057,1057,Železnički Most Sava,,44.8033836,20.436192,1,,0,,,0
1058,1058,Novi Železnički Most,,44.8037,20.43074,1,,0,,,0
1059,1059,Novi Železnički Most,,44.803773,20.4312266,1,,0,,,0
1060,1060,Jrb,,44.802664,20.4250129,1,,0,,,0
1061,1061,Jrb,,44.8023294,20.4253114,1,,0,,,0
1062,1062,Blok 42,,44.8036625,20.4186322,1,,0,,,0
1063,1063,Gp Rad,,44.8012032,20.4154619,1,,0,,,0
1064,1064,Gp Rad,,44.8009834,20.4161698,1,,0,,,0
1065,1065,Toplana,,44.8013988,20.4138209,1,,0,,,0
1066,1066,Zvezdara 2,,44.8067817,20.509502,1,,0,,,0
1067,1067,Zvezdara 2,,44.8068417,20.5093371,1,,0,,,0
1068,1068,Institut Mihajlo Pupin,,44.8081819,20.5059705,1,,0,,,0
1069,1069,Institut Mihajlo Pupin,,44.8075276,20.5067257,1,,0,,,0
1070,1070,Dragiše Lapčevića,,44.8092081,20.4986074,1,,0,,,0
1071,1071,Dragiše Lapčevića,,44.8092721,20.4997563,1,,0,,,0
1072,1072,Ljubice Luković,,44.8081939,20.4937102,1,,0,,,0
1073,1073,Ljubice Luković,,44.8080756,20.4938373,1,,0,,,0
1074,1074,Pante Srećkovića,,44.8064042,20.493881,1,,0,,,0
1075,1075,Pante Srećkovića,,44.806241,20.4940293,1,,0,,,0
1076,1076,Veljka Dugoševića,,44.8053376,20.4924229,1,,0,,,0
1077,1077,Veljka Dugoševića,,44.8053379,20.4913679,1,,0,,,0
1078,1078,Toplička,,44.8059016,20.4901022,1,,0,,,0
1079,1079,Braće Ribnikar,,44.8083388,20.4844031,1,,0,,,0
1080,1080,Braće Ribnikar,,44.8084568,20.4840061,1,,0,,,0
1081,1081,Nikole Doksata,,44.7995127,20.520974,1,,0,,,0
1082,1082,Robni Terminal,,44.8173628,20.2882364,2,,0,,,0
1083,1083,Blagoja Rankovića,,44.697306,20.323894,2,,0,,,0
1084,1084,Fontana,,44.8255759,20.4081935,1,,0,,,0
1085,1085,Bulevar Zorana Đinđića,,44.8235322,20.4065496,1,,0,,,0
1086,1086,Uprava Carine,,44.8223928,20.405317,1,,0,,,0
1087,1087,Uprava Carine,,44.8219025,20.4050809,1,,0,,,0
1088,1088,Autoput,,44.8190118,20.40225,1,,0,,,0
1089,1089,Autoput,,44.8196959,20.4030943,1,,0,,,0
1090,1090,Narodnih Heroja,,44.8175918,20.3996484,1,,0,,,0
1091,1091,Blok 37,,44.8178189,20.4013878,1,,0,,,0
1092,1092,Omladinski Stadion /Ulaz/,,44.8151304,20.4897551,1,,0,,,0
1093,1093,Omladinski Stadion/Izlaz/,,44.8150182,20.4893167,1,,0,,,0
1094,1094,Bulevar Zorana Đinđića,,44.8205836,20.4154992,1,,0,,,0
1095,1095,Bulevar Zorana Đinđića,,44.8204869,20.4158698,1,,0,,,0
1096,1096,Blok 29,,44.81775,20.4129965,1,,0,,,0
1097,1097,Blok 29,,44.8177794,20.413423,1,,0,,,0
1098,1098,Fakultet Dramskih Umetnosti,,44.8148953,20.410412,1,,0,,,0
1099,1099,Fakultet Dramskih Umetnosti,,44.8156676,20.411513,1,,0,,,0
1100,1100,Petra Drapšina,,44.871126,20.4564785,2,,0,,,0
1101,1101,Blok 28,,44.8137028,20.4097354,1,,0,,,0
1102,1102,Španskih Boraca,,44.8107353,20.4146079,1,,0,,,0
1103,1103,Milutina Milankovića,,44.808862,20.4204014,1,,0,,,0
1104,1104,Milutina Milankovića,,44.8088098,20.4188042,1,,0,,,0
1105,1105,Blok 24,,44.8100438,20.4214728,1,,0,,,0
1106,1106,Blok 24,,44.809802,20.4208471,1,,0,,,0
1107,1107,Zeleni Venac,,44.8139303,20.4567162,1,,0,,,0
1108,1108,Jurija Gagarina,,44.8015175,20.3886459,1,,0,,,0
1109,1109,Jurija Gagarina,,44.8010538,20.3890215,1,,0,,,0
1110,1110,Blok 70 -Okretnica,,44.798311,20.389525,1,,0,,,0
1111,1111,Blok 70,,44.797577,20.389889,1,,0,,,0
1112,1112,Blok 70a,,44.7980193,20.4002925,1,,0,,,0
1113,1113,Blok 70a,,44.7977392,20.40009,1,,0,,,0
1114,1114,Jurija Gagarina,,44.8018548,20.3997811,1,,0,,,0
1115,1115,Jurija Gagarina,,44.8016489,20.399577,1,,0,,,0
1116,1116,Studentska,,44.8261907,20.4023302,1,,0,,,0
1117,1117,Studentska,,44.8269944,20.4032695,1,,0,,,0
1118,1118,Studentski Grad,,44.8261014,20.3977762,1,,0,,,0
1119,1119,Studentski Grad,,44.8262715,20.3991607,1,,0,,,0
1120,1120,Pećani /Škola/,,44.6928518,20.3306393,2,,0,,,0
1121,1121,V. Moštanica - Crkva,,44.6840029,20.3406445,2,,0,,,0
1122,1122,Železnička Stanica Tošin Bunar,,44.8171467,20.395009,1,,0,,,0
1123,1123,Železnička Stanica Tošin Bunar,,44.8169189,20.3952643,1,,0,,,0
1124,1124,Stari Aerodrom,,44.813957,20.3926014,1,,0,,,0
1125,1125,Strugarska,,44.7771,20.40715,1,,0,,,0
1126,1126,Imt,,44.8125017,20.3895521,1,,0,,,0
1127,1127,Imt,,44.8128907,20.3912668,1,,0,,,0
1128,1128,Gandijeva,,44.81005,20.38136,1,,0,,,0
1130,1130,Naselje Mileva Marić Ajnštajn,,44.79868,20.36781,1,,0,,,0
1131,1131,Hasanaginica,,44.7579393,20.4558341,1,,0,,,0
1132,1132,Koste Živkovića,,44.7568718,20.4515835,1,,0,,,0
1133,1133,Kbc Bežanijska Kosa,,44.8289738,20.3835276,1,,0,,,0
1134,1134,Naselje Mileva Marić Ajnštajn,,44.798352,20.367378,1,,0,,,0
1135,1135,Crkva Sv. Georgija,,44.807829,20.375953,1,,0,,,0
1136,1136,Crkva Sv. Georgija,,44.8080602,20.3770257,1,,0,,,0
1137,1137,Dušana Vukasovića,,44.8056591,20.3705114,1,,0,,,0
1138,1138,Dušana Vukasovića,,44.8061095,20.3723185,1,,0,,,0
1139,1139,Surčinska,,44.8041303,20.3667599,1,,0,,,0
1140,1140,Surčinska,,44.8040025,20.3671663,1,,0,,,0
1141,1141,Nedeljka Gvozdenovića,,44.8076708,20.3605821,1,,0,,,0
1142,1142,Nedeljka Gvozdenovića,,44.8075849,20.3603028,1,,0,,,0
1143,1143,Ledine,,44.8051292,20.3491893,1,,0,,,0
1144,1144,Blok 44,,44.797067,20.383964,1,,0,,,0
1145,1145,Blok 44,,44.7965433,20.3841608,1,,0,,,0
1146,1146,Dom Zdravlja Blok 44,,44.7992612,20.3826389,1,,0,,,0
1147,1147,Dom Zdravlja Blok 44,,44.7988459,20.382643,1,,0,,,0
1148,1148,Dr Ivana Ribara,,44.7993363,20.3702931,1,,0,,,0
1149,1149,"Naselje ""Dr Ivan Ribar""",,44.7997804,20.3695311,1,,0,,,0
1150,1150,Blok 61,,44.8016461,20.3683271,1,,0,,,0
1151,1151,Blok 61,,44.803159,20.3665382,1,,0,,,0
1152,1152,Zemun /Gornji Grad/,,44.8591469,20.3780516,1,,0,,,0
1153,1153,Zemun /Gornji Grad/,,44.858848,20.3783429,1,,0,,,0
1154,1154,Geomašina,,44.8653319,20.3638949,2,,0,,,0
1155,1155,Geomašina,,44.8646947,20.3649936,2,,0,,,0
1156,1156,Preduzeće Galenika Magmasil,,44.8674141,20.3590118,2,,0,,,0
1157,1157,Preduzeće Galenika Magmasil,,44.8671356,20.3592778,2,,0,,,0
1158,1158,Coca-Cola,,44.8697242,20.3537181,2,,0,,,0
1159,1159,Coca-Cola,,44.8684548,20.3562482,2,,0,,,0
1160,1160,Elektronska Industrija,,44.8740376,20.3437955,2,,0,,,0
1161,1161,Elektronska Industrija,,44.8737049,20.3440665,2,,0,,,0
1162,1162,Put Za 13. Maj,,44.8783216,20.3339526,2,,0,,,0
1163,1163,Put Za 13. Maj,,44.877831,20.33452,2,,0,,,0
1164,1164,Ciglana,,44.885725,20.316782,2,,0,,,0
1165,1165,Ciglana,,44.884949,20.31812,2,,0,,,0
1166,1166,Naselje Ekonomija,,44.88951,20.308518,2,,0,,,0
1167,1167,Naselje Ekonomija,,44.888646,20.310073,2,,0,,,0
1168,1168,Belarička,,44.892512,20.301947,2,,0,,,0
1169,1169,Batajnica (Ulaz),,44.894836,20.296452,2,,0,,,0
1170,1170,Batajnica (Ulaz),,44.89552,20.295328,2,,0,,,0
1171,1171,Maksima Brankovića,,44.8973292,20.2915951,2,,0,,,0
1172,1172,Maksima Brankovića,,44.8979894,20.2897153,2,,0,,,0
1173,1173,Braće Smiljanić,,44.9001229,20.2855922,2,,0,,,0
1174,1174,Braće Smiljanić,,44.8992527,20.2870632,2,,0,,,0
1175,1175,Majke Jugovića,,44.902663,20.280901,2,,0,,,0
1176,1176,Majke Jugovića,,44.901541,20.282494,2,,0,,,0
1177,1177,Batajnica (Centar),,44.9057599,20.274251,2,,0,,,0
1178,1178,Batajnica (Centar),,44.905766,20.275185,2,,0,,,0
1179,1179,Batajnica /Železnička Rampa/,,44.90196,20.26964,2,,0,,,0
1180,1180,Batajnica /Železnička Rampa/,,44.9020844,20.269977,2,,0,,,0
1181,1181,Milutina Milankovića,,44.8203719,20.3962053,1,,0,,,0
1182,1182,Studentski Grad,,44.8268924,20.3966314,1,,0,,,0
1183,1183,Sc 11. April,,44.826436,20.3928697,1,,0,,,0
1184,1184,Sc 11. April,,44.8270536,20.3939692,1,,0,,,0
1185,1185,Stojana Aralice,,44.8227612,20.3884675,1,,0,,,0
1186,1186,Stojana Aralice,,44.8226026,20.3887371,1,,0,,,0
1187,1187,Nikole Dobrovića,,44.8180292,20.3862545,1,,0,,,0
1188,1188,Nikole Dobrovića,,44.8172781,20.3847181,1,,0,,,0
1189,1189,Dr Huga Klajna,,44.8199628,20.3811128,1,,0,,,0
1190,1190,Dr Huga Klajna,,44.8200374,20.3796949,1,,0,,,0
1191,1191,Bežanijska Kosa (Izlaz),,44.8206389,20.3777605,1,,0,,,0
1192,1192,Nedeljka Gvozdenovića,,44.8145055,20.3749084,1,,0,,,0
1193,1193,Bežanijska Kosa /Groblje/,,44.8173972,20.3710488,1,,0,,,0
1194,1194,Gandijeva,,44.8107107,20.3833027,1,,0,,,0
1195,1195,Zelengorska,,44.8276786,20.3889909,1,,0,,,0
1196,1196,Zelengorska,,44.82747,20.3892162,1,,0,,,0
1197,1197,Kbc Bežanijska Kosa,,44.8292882,20.3827573,1,,0,,,0
1198,1198,Bežanijska Kosa,,44.8300011,20.3799393,1,,0,,,0
1199,1199,Dom Penzionera,,44.8334894,20.390529,1,,0,,,0
1200,1200,Generala Nedeljkovića,,44.8170742,20.3889363,1,,0,,,0
1201,1201,Generala Nedeljkovića,,44.8167576,20.3890554,1,,0,,,0
1202,1202,Nikole Dobrovića,,44.8189364,20.3845601,1,,0,,,0
1203,1203,Zrenjaninski Put,,44.886505,20.459034,2,,0,,,0
1204,1204,Bežanijska Kosa (Ulaz),,44.8206761,20.3760565,1,,0,,,0
1205,1205,Raška Dimitrijevića,,44.8136169,20.3781983,1,,0,,,0
1206,1206,Raška Dimitrijevića,,44.8140696,20.3769684,1,,0,,,0
1207,1207,Vojvođanska,,44.80982,20.38285,1,,0,,,0
1208,1208,Pukovnika Petra Mišića,,44.7578828,20.4955554,2,,0,,,0
1209,1209,V. Moštanica - Ekonom.,,44.6770669,20.3452863,2,,0,,,0
1210,1210,Vojvođanska,,44.8109675,20.382295,1,,0,,,0
1211,1211,Mz Mladost,,44.8064505,20.385636,1,,0,,,0
1212,1212,Mz Mladost,,44.806247,20.3861778,1,,0,,,0
1213,1213,Pijaca Blok 44,,44.8028249,20.3844218,1,,0,,,0
1214,1214,Pijaca Blok 44,,44.8023568,20.3839491,1,,0,,,0
1215,1215,Batajnica /Železnička Stanica/,,44.899939,20.2711394,2,,0,,,0
1216,1216,Kneza Miloša,,44.8052917,20.4612779,1,,0,,,0
1217,1217,Kneza Miloša,,44.8053816,20.4606571,1,,0,,,0
1218,1218,Savski Trg,,44.807161,20.457858,1,,0,,,0
1220,1220,Vrtić Milica,,44.84637,20.35884,2,,0,,,0
1221,1221,Vrtić Milica,,44.84641,20.35982,2,,0,,,0
1222,1222,Zadrugarska,,44.8501961,20.3818841,1,,0,,,0
1223,1223,Zadrugarska,,44.8502017,20.383299,1,,0,,,0
1224,1224,Zemun /Bačka/,,44.8480834,20.3791326,1,,0,,,0
1225,1225,Dobrivoja Jovanovića,,44.673702,20.3516924,2,,0,,,0
1226,1226,Zeleni Venac,,44.8139998,20.456194,1,,0,,,0
1227,1227,Karađorđev Trg,,44.8380963,20.4167476,1,,0,,,0
1228,1228,Košutnjak,,44.756601,20.447903,1,,0,,,0
1229,1229,Koste Živkovića,,44.756951,20.4523858,1,,0,,,0
1230,1230,Galenika ,,44.862307,20.3679204,2,,0,,,0
1231,1231,Galenika ,,44.8617698,20.3676598,2,,0,,,0
1232,1232,Galenika (Kapija),,44.8595699,20.3656316,2,,0,,,0
1233,1233,Mihajla Vukše,,44.8580952,20.3684524,2,,0,,,0
1234,1234,Mihajla Vukše,,44.8585144,20.3676778,2,,0,,,0
1235,1235,Nova Galenika,,44.8571075,20.3699202,2,,0,,,0
1236,1236,Zemun /Bačka/,,44.8489652,20.3795217,1,,0,,,0
1237,1237,Borča 3,,44.874591,20.4481775,2,,0,,,0
1238,1238,Borča 3,,44.8747258,20.4483189,2,,0,,,0
1239,1239,Bele Bartoka,,44.8777588,20.4517447,2,,0,,,0
1240,1240,Bele Bartoka,,44.87718,20.4513544,2,,0,,,0
1241,1241,Kombinatova,,44.8806961,20.4528661,2,,0,,,0
1242,1242,Kombinatova,,44.8800679,20.4520191,2,,0,,,0
1243,1243,Mihajla Šolohova,,44.879057,20.4564446,2,,0,,,0
1244,1244,Mihajla Šolohova,,44.878898,20.4568994,2,,0,,,0
1245,1245,Milana Ajvaza,,44.8773959,20.4591138,2,,0,,,0
1246,1246,Milana Ajvaza,,44.877238,20.4595235,2,,0,,,0
1247,1247,Valjevskog Odreda,,44.8755242,20.4629357,2,,0,,,0
1248,1248,Valjevskog Odreda,,44.8756378,20.4620167,2,,0,,,0
1249,1249,Borča Raskršće,,44.8771776,20.4675475,2,,0,,,0
1250,1250,Borča Raskršće,,44.8776536,20.4675509,2,,0,,,0
1251,1251,Sebeš Mokri,,44.8726881,20.4705439,2,,0,,,0
1252,1252,Sebeš Mokri,,44.87207,20.471353,2,,0,,,0
1253,1253,Sebeška Reka,,44.8680103,20.4736953,1,,0,,,0
1254,1254,Sebeška Reka,,44.8684424,20.4737087,1,,0,,,0
1255,1255,Sebeš Suvi,,44.8606165,20.478636,1,,0,,,0
1256,1256,Sebeš Suvi,,44.8618987,20.4780892,1,,0,,,0
1257,1257,Pakračka,,44.8573939,20.4807873,1,,0,,,0
1258,1258,Pakračka,,44.8585958,20.4802998,1,,0,,,0
1259,1259,Pirotsko Naselje,,44.8524298,20.4841113,1,,0,,,0
1260,1260,Pirotsko Naselje,,44.8536725,20.4835948,1,,0,,,0
1261,1261,Blok 42,,44.8041104,20.4160771,1,,0,,,0
1262,1262,Blok 61,,44.8011941,20.370284,1,,0,,,0
1263,1263,Agostina Neta,,44.8047066,20.4025696,1,,0,,,0
1264,1264,Agostina Neta,,44.8042606,20.4051439,1,,0,,,0
1265,1265,Pilota Mihajla Petrovića,,44.7446808,20.4377622,2,,0,,,0
1266,1266,Pilota Mihajla Petrovića,,44.7449087,20.4384868,2,,0,,,0
1267,1267,Blok 63,,44.8065878,20.3815317,1,,0,,,0
1268,1268,Blok 63,,44.8055152,20.3820278,1,,0,,,0
1269,1269,Blok 62,,44.8042076,20.3756957,1,,0,,,0
1270,1270,Blok 62,,44.8034657,20.3770023,1,,0,,,0
1271,1271,Mz Blok 61,,44.802592,20.3717528,1,,0,,,0
1272,1272,Mz Blok 61,,44.8017138,20.372721,1,,0,,,0
1273,1273,Petrovčić,,44.795087,20.1354494,2,,0,,,0
1274,1274,Bratstva I Jedinstva,,44.8869282,20.461012,2,,0,,,0
1275,1275,Drinske Divizije,,44.8855391,20.4579275,2,,0,,,0
1276,1276,Drinske Divizije,,44.8850778,20.4576069,2,,0,,,0
1277,1277,Save Mrkalja,,44.8827252,20.454814,2,,0,,,0
1278,1278,Save Mrkalja,,44.8825486,20.4548269,2,,0,,,0
1279,1279,Omladinski Stadion,,44.8154917,20.4901294,1,,0,,,0
1280,1280,Bratstva I Jedinstva,,44.8886164,20.4601283,2,,0,,,0
1281,1281,Blok 72,,44.80032,20.3662,1,,0,,,0
1282,1282,Blok 72,,44.80064,20.36554,1,,0,,,0
1283,1283,Put Za Kovilovo,,44.9136212,20.4434041,2,,0,,,0
1284,1284,Put Za Kovilovo,,44.9123517,20.4440052,2,,0,,,0
1285,1285,Put Za Jabučki Rit,,44.9178394,20.4405835,2,,0,,,0
1286,1286,Put Za Jabučki Rit,,44.915675,20.4417575,2,,0,,,0
1287,1287,Frikom,,44.9219127,20.4378568,2,,0,,,0
1288,1288,Frikom,,44.9204316,20.4386146,2,,0,,,0
1289,1289,Pk Beograd,,44.9300469,20.4375889,2,,0,,,0
1290,1290,Pk Beograd,,44.928572,20.4369615,2,,0,,,0
1291,1291,Naselje Tovilište,,44.935232,20.436009,2,,0,,,0
1292,1292,Naselje Tovilište 1,,44.9338536,20.4370682,2,,0,,,0
1293,1293,Marije Ilić Agapove,,44.9378518,20.432008,2,,0,,,0
1294,1294,Marije Ilić Agapove,,44.9372187,20.4323187,2,,0,,,0
1295,1295,Ratomira Stojadinovića,,44.9417665,20.4286609,2,,0,,,0
1296,1296,Ratomira Stojadinovića,,44.9418224,20.4283794,2,,0,,,0
1297,1297,Padinska Skela,,44.9449658,20.4252142,2,,0,,,0
1298,1298,Padinska Skela,,44.9450291,20.4252674,2,,0,,,0
1301,1301,Kp Dom,,44.9542342,20.4281055,2,,0,,,0
1302,1302,Kp Dom,,44.9545979,20.4273142,2,,0,,,0
1303,1303,Sefkereški Kanal,,44.9720148,20.4184976,2,,0,,,0
1304,1304,Sefkereški Kanal,,44.9729043,20.4178724,2,,0,,,0
1305,1305,Put Za Vrbovski,,44.9926445,20.4123051,2,,0,,,0
1306,1306,Put Za Vrbovski,,44.9918525,20.4121808,2,,0,,,0
1307,1307,Besni Fok,,44.9946345,20.4072906,2,,0,,,0
1308,1308,Besni Fok,,44.9945476,20.4074545,2,,0,,,0
1309,1309,Ambulanta,,44.9939006,20.3967652,2,,0,,,0
1310,1310,Ambulanta,,44.9938408,20.3971452,2,,0,,,0
1311,1311,Vodovodna Stanica,,44.9877981,20.3858907,2,,0,,,0
1312,1312,Vodovodna Stanica,,44.9878309,20.386141,2,,0,,,0
1313,1313,Vrbovski (Ulaz),,44.9800438,20.3590833,2,,0,,,0
1314,1314,Vrbovski (Ulaz),,44.9798309,20.3589542,2,,0,,,0
1315,1315,Vrbovski,,44.9780652,20.356172,2,,0,,,0
1316,1316,Mihaila Bulgakova,,44.7872916,20.5406358,2,,0,,,0
1317,1317,Sonje Marinković,,44.8734275,20.4591567,2,,0,,,0
1319,1319,Valjevskog Odreda,,44.8750986,20.4619483,2,,0,,,0
1320,1320,Trg Oslobođenja,,44.8719693,20.4567036,2,,0,,,0
1321,1321,Mihaila Bulgakova,,44.7873397,20.5404856,2,,0,,,0
1322,1322,Branka Radičevića,,44.8692214,20.4535564,2,,0,,,0
1323,1323,Branka Radičevića,,44.8691245,20.4545753,2,,0,,,0
1324,1324,Vuka Karadžića,,44.8693331,20.4493283,2,,0,,,0
1325,1325,Vuka Karadžića,,44.8692209,20.4503331,2,,0,,,0
1326,1326,Veliki Kanal,,44.8625341,20.439571,2,,0,,,0
1327,1327,Veliki Kanal,,44.8632087,20.4408109,2,,0,,,0
1328,1328,Pumpa,,44.8589441,20.4343204,2,,0,,,0
1329,1329,Pumpa,,44.8584428,20.4331372,2,,0,,,0
1330,1330,Crvenka,,44.8607973,20.4177646,2,,0,,,0
1331,1331,Put Za Ovču,,44.8812954,20.4769996,2,,0,,,0
1332,1332,Put Za Ovču,,44.8814189,20.4763546,2,,0,,,0
1333,1333,Branislava Cige Jerinića,,44.8821425,20.4917927,2,,0,,,0
1334,1334,Branislava Cige Jerinića,,44.8822065,20.4910347,2,,0,,,0
1335,1335,Mirgorodska,,44.8814171,20.4828847,2,,0,,,0
1336,1336,Mirgorodska,,44.8813603,20.4820274,2,,0,,,0
1337,1337,Atovi,,44.8844758,20.5106914,2,,0,,,0
1338,1338,Atovi,,44.8844001,20.5094992,2,,0,,,0
1339,1339,Ovča /Ulaz/,,44.8870714,20.530167,2,,0,,,0
1340,1340,Ovča /Ulaz/,,44.886993,20.5294498,2,,0,,,0
1341,1341,Ovča /Centar/,,44.8882028,20.5347183,2,,0,,,0
1342,1342,Ovča /Centar/,,44.8883208,20.5347389,2,,0,,,0
1343,1343,V. Moštanica /Centar/,,44.6651206,20.3534498,2,,0,,,0
1344,1344,Žarka Zrenjanina,,44.8891808,20.5383112,2,,0,,,0
1345,1345,Stanićeva,,44.6576647,20.3600409,2,,0,,,0
1346,1346,Ovča /Beogradska/,,44.8902671,20.5426734,2,,0,,,0
1347,1347,Železnicka Rampa,,44.875336,20.5393604,2,,0,,,0
1348,1348,Železnicka Rampa,,44.8758985,20.5391505,2,,0,,,0
1349,1349,Ovča /Železnička Stanica/,,44.8753361,20.5433427,2,,0,,,0
1350,1350,Zrenjaninski Put,,44.9129654,20.4428814,2,,0,,,0
1351,1351,Put Za Železnik,,44.741787,20.3602287,2,,0,,,0
1352,1352,Kovilovo 1,,44.9093843,20.4333604,2,,0,,,0
1353,1353,Kovilovo 1,,44.9096185,20.4343506,2,,0,,,0
1354,1354,Kovilovo 2,,44.909747,20.4301743,2,,0,,,0
1355,1355,Kovilovo 2,,44.9091851,20.4304205,2,,0,,,0
1356,1356,Put Za Jabučki Rit,,44.9165563,20.4418226,2,,0,,,0
1357,1357,Put Za Jabučki Rit,,44.9167119,20.4417258,2,,0,,,0
1358,1358,Štale Pkb,,44.921215,20.4527345,2,,0,,,0
1359,1359,Štale Pkb,,44.9211669,20.4523784,2,,0,,,0
1360,1360,Glogonjski Rit,,44.9301752,20.4743936,2,,0,,,0
1361,1361,Glogonjski Rit,,44.9302158,20.4742051,2,,0,,,0
1362,1362,Stari Aerodrom,,44.9288096,20.506286,2,,0,,,0
1363,1363,Stari Aerodrom,,44.9289932,20.5061211,2,,0,,,0
1364,1364,Radenska Bara,,44.9287498,20.5444366,2,,0,,,0
1365,1365,Radenska Bara,,44.9289726,20.5443781,2,,0,,,0
1366,1366,Mašinski Park,,44.9208785,20.5541106,2,,0,,,0
1367,1367,Mašinski Park,,44.9209378,20.5542662,2,,0,,,0
1368,1368,Jabučki Rit,,44.9181913,20.557786,2,,0,,,0
1369,1369,Progres,,44.8458058,20.5129912,1,,0,,,0
1370,1370,Politika,,44.8476272,20.519223,1,,0,,,0
1371,1371,Politika,,44.8474706,20.5177259,1,,0,,,0
1372,1372,Amd Grocka,,44.6806396,20.7102509,2,,0,,,0
1373,1373,Amd Grocka,,44.6817086,20.7088263,2,,0,,,0
1374,1374,Hidrotehnika,,44.849921,20.5278379,1,,0,,,0
1375,1375,Hidrotehnika,,44.8497891,20.5263479,1,,0,,,0
1376,1376,Rafinerija,,44.8510927,20.5322447,1,,0,,,0
1377,1377,Rafinerija,,44.8509324,20.5306577,1,,0,,,0
1378,1378,Janko Lisjak,,44.8437147,20.5081891,1,,0,,,0
1379,1379,Blok Braća Marić,,44.8399264,20.4994962,1,,0,,,0
1380,1380,Progres,,44.8461317,20.5145338,1,,0,,,0
1381,1381,Janko Lisjak,,44.8440392,20.5095884,1,,0,,,0
1382,1382,Blok Braća Marić,,44.8402367,20.5008673,1,,0,,,0
1383,1383,Busije 1,,44.88846,20.2227197,2,,0,,,0
1384,1384,Košutnjak,,44.756565,20.447629,1,,0,,,0
1385,1385,Železnička Stanica Rakovica,,44.7469539,20.4436369,2,,0,,,0
1386,1386,Železnička Stanica Rakovica,,44.7482623,20.4445201,2,,0,,,0
1387,1387,Gorica,,44.6922167,20.3804909,2,,0,,,0
1388,1388,Balkan,,44.8524831,20.5374674,2,,0,,,0
1389,1389,Balkan,,44.852323,20.5358857,2,,0,,,0
1390,1390,Radiostanica,,44.8543519,20.5444817,2,,0,,,0
1391,1391,Radiostanica,,44.8542257,20.5430256,2,,0,,,0
1392,1392,Naselje Ilić,,44.8570787,20.5547433,2,,0,,,0
1393,1393,Naselje Ilić,,44.856952,20.55328,2,,0,,,0
1394,1394,Deseti Kilometar,,44.8590266,20.5620687,2,,0,,,0
1395,1395,Deseti Kilometar,,44.8589019,20.5606133,2,,0,,,0
1396,1396,Sibnica,,44.8665134,20.5904523,2,,0,,,0
1397,1397,Sibnica,,44.8661541,20.5884229,2,,0,,,0
1398,1398,Mz Reva /Mali Raj/,,44.8678217,20.5946727,2,,0,,,0
1399,1399,Rospi Ćuprija,,44.8176338,20.5230681,2,,0,,,0
1400,1400,Gilino Voće,,44.6550474,20.3656662,2,,0,,,0
1401,1401,Trudbenička,,44.8157132,20.5284641,2,,0,,,0
1402,1402,Trudbenička,,44.8161964,20.527039,2,,0,,,0
1403,1403,Višnjička Banja,,44.815638,20.5326762,2,,0,,,0
1404,1404,Višnjika Banja,,44.8158352,20.5318531,2,,0,,,0
1405,1405,Toplana,,44.814516,20.5373319,2,,0,,,0
1406,1406,Toplana,,44.8149445,20.5364713,2,,0,,,0
1407,1407,Lešće,,44.8116551,20.543795,2,,0,,,0
1408,1408,Lešće,,44.8124033,20.5427548,2,,0,,,0
1409,1409,Lešće /Ulaz/,,44.8100444,20.5478127,2,,0,,,0
1410,1410,Lešće /Ulaz/,,44.8105482,20.5471737,2,,0,,,0
1411,1411,Lešće /Groblje/,,44.8101123,20.546905,2,,0,,,0
1412,1412,Slanci /Ulaz/,,44.8065043,20.5569037,2,,0,,,0
1413,1413,Slanci /Ulaz/,,44.8067589,20.556504,2,,0,,,0
1414,1414,Izvorska,,44.8075714,20.566084,2,,0,,,0
1415,1415,Izvorska,,44.8077617,20.5664955,2,,0,,,0
1416,1416,Slanci /Škola/,,44.8081596,20.570728,2,,0,,,0
1417,1417,Slanci /Škola/,,44.8081082,20.5701529,2,,0,,,0
1418,1418,Veterinarska Stanica,,44.8091413,20.5769895,2,,0,,,0
1419,1419,Veterinarska Stanica,,44.8091415,20.5766396,2,,0,,,0
1420,1420,Teslina,,44.8063499,20.5888757,2,,0,,,0
1421,1421,Teslina,,44.8064012,20.5887777,2,,0,,,0
1422,1422,Omladinska,,44.8080079,20.5917225,2,,0,,,0
1423,1423,Omladinska,,44.8080423,20.5915751,2,,0,,,0
1424,1424,Mz Veliko Selo,,44.8107172,20.5977801,2,,0,,,0
1425,1425,Mz Veliko Selo,,44.8107452,20.5976008,2,,0,,,0
1426,1426,Veliko Selo,,44.8122029,20.6014721,2,,0,,,0
1427,1427,Ustanička,,44.7847748,20.5172885,1,,0,,,0
1428,1428,Bajdina,,44.779398,20.525832,1,,0,,,0
1429,1429,Bajdina,,44.7812016,20.5234427,1,,0,,,0
1430,1430,Mirijevska,,44.777633,20.5299696,2,,0,,,0
1431,1431,Mirijevska,,44.7782337,20.5289366,2,,0,,,0
1432,1432,"Oš ""Dragojlo Dudić""",,44.7757503,20.534132,2,,0,,,0
1433,1433,"Oš ""Dragojlo Dudić""",,44.7756738,20.5344679,2,,0,,,0
1434,1434,Nine Kirsanove,,44.7763177,20.547934,2,,0,,,0
1435,1435,Nine Kirsanove,,44.7764168,20.5481469,2,,0,,,0
1436,1436,Novo Naselje,,44.7724251,20.5541451,2,,0,,,0
1437,1437,Novo Naselje,,44.7731032,20.5532951,2,,0,,,0
1438,1438,Put Za Kaluđericu,,44.7676874,20.5603662,2,,0,,,0
1439,1439,Put Za Kaluđericu,,44.7679475,20.5604528,2,,0,,,0
1440,1440,Put Za Institut,,44.7644521,20.5643735,2,,0,,,0
1441,1441,Put Za Institut,,44.7656973,20.5631977,2,,0,,,0
1442,1442,Filipa Kljajića,,44.7622527,20.5661597,2,,0,,,0
1443,1443,Filipa Kljajića,,44.7628532,20.5658619,2,,0,,,0
1444,1444,Stara Kaluđerica,,44.7593407,20.5695641,2,,0,,,0
1445,1445,Stara Kaluđerica,,44.7597494,20.5690556,2,,0,,,0
1446,1446,Čardak,,44.7564445,20.575974,2,,0,,,0
1447,1447,Čardak,,44.756879,20.5755579,2,,0,,,0
1448,1448,Hotel Radmilovac,,44.7536646,20.5808458,2,,0,,,0
1449,1449,Hotel Radmilovac,,44.7535189,20.581153,2,,0,,,0
1450,1450,Petra Kočića,,44.7508803,20.5839783,2,,0,,,0
1451,1451,Petra Kočića,,44.7513503,20.5836382,2,,0,,,0
1452,1452,Dušana  Petrovića Šaneta,,44.7483924,20.587899,2,,0,,,0
1453,1453,Dušana  Petrovića Šaneta,,44.7490186,20.5867314,2,,0,,,0
1454,1454,Zdravstvena St. Leštane I Vinča,,44.74553,20.5986606,2,,0,,,0
1455,1455,Zdravstvena St. Leštane I Vinča,,44.746127,20.5971998,2,,0,,,0
1456,1456,Boleč Raskršće,,44.7356618,20.6115792,2,,0,,,0
1457,1457,Boleč Raskršće,,44.7360168,20.6110772,2,,0,,,0
1458,1458,Hladnjača Pkb,,44.7219462,20.6310019,2,,0,,,0
1459,1459,Hladnjača Pkb,,44.7220334,20.6316493,2,,0,,,0
1460,1460,Vikendice,,44.7131264,20.6599394,2,,0,,,0
1461,1461,Vikendice,,44.7136579,20.6596427,2,,0,,,0
1462,1462,Plantaža,,44.705911,20.6631608,2,,0,,,0
1463,1463,Plantaža,,44.7056914,20.6633464,2,,0,,,0
1464,1464,Bećarevo Brdo,,44.7009092,20.661644,2,,0,,,0
1465,1465,Bećarevo Brdo,,44.7007389,20.6620022,2,,0,,,0
1466,1466,Put Za Zaklopaču,,44.6974303,20.6691578,2,,0,,,0
1467,1467,Put Za Zaklopaču,,44.6976484,20.6690898,2,,0,,,0
1468,1468,Usek,,44.6911685,20.683158,2,,0,,,0
1469,1469,Usek,,44.6919579,20.6827123,2,,0,,,0
1470,1470,Suva Česma,,44.68844,20.6932007,2,,0,,,0
1471,1471,Suva Česma,,44.6887195,20.6924031,2,,0,,,0
1472,1472,Careva Glavica,,44.6858608,20.7017779,2,,0,,,0
1473,1473,Careva Glavica,,44.6864794,20.7013049,2,,0,,,0
1474,1474,Gročica,,44.6833173,20.705481,2,,0,,,0
1475,1475,Gročica,,44.683605,20.7052248,2,,0,,,0
1476,1476,Vase Čarapića,,44.6779464,20.7127402,2,,0,,,0
1477,1477,Vase Čarapića,,44.6778125,20.7129623,2,,0,,,0
1478,1478,Šumadijska,,44.6736087,20.7162543,2,,0,,,0
1479,1479,Šumadijska,,44.6742057,20.7156129,2,,0,,,0
1480,1480,Grocka,,44.6705231,20.7176329,2,,0,,,0
1481,1481,Ja,,44.6698117,20.7168436,2,,0,,,0
1482,1482,15. Maja,,44.6650691,20.7092087,2,,0,,,0
1483,1483,15. Maja,,44.6645082,20.7087976,2,,0,,,0
1484,1484,Bosansko Naselje,,44.6600261,20.7068244,2,,0,,,0
1485,1485,Bosansko Naselje,,44.6602956,20.7071293,2,,0,,,0
1486,1486,Begaljički Most,,44.6561903,20.7068772,2,,0,,,0
1487,1487,Begaljički Most,,44.6565911,20.7072378,2,,0,,,0
1488,1488,Vinogradi,,44.6526235,20.705492,2,,0,,,0
1489,1489,Vinogradi,,44.6522693,20.7055826,2,,0,,,0
1490,1490,Begaljica /Ulaz/,,44.6454696,20.7041554,2,,0,,,0
1491,1491,Begaljica /Ulaz/,,44.6456803,20.7044436,2,,0,,,0
1492,1492,Zelengora,,44.6380084,20.7023493,2,,0,,,0
1493,1493,Zelengora,,44.6381521,20.7026502,2,,0,,,0
1494,1494,Ulica Revolucije,,44.6343855,20.6986528,2,,0,,,0
1495,1495,Ulica Revolucije,,44.6342975,20.6987134,2,,0,,,0
1496,1496,Begaljica,,44.6324467,20.695067,2,,0,,,0
1497,1497,Put Za Zaklopaču,,44.6975733,20.6682871,2,,0,,,0
1498,1498,Put Za Zaklopaču,,44.697367,20.6682366,2,,0,,,0
1499,1499,Mostine,,44.69441,20.6651263,2,,0,,,0
1500,1500,Mostine,,44.6944999,20.6654417,2,,0,,,0
1501,1501,Ulaz U Zaklopaču,,44.6873882,20.6632598,2,,0,,,0
1502,1502,Ulaz U Zaklopaču,,44.6880218,20.6633285,2,,0,,,0
1503,1503,4. Jula,,44.6852185,20.6619424,2,,0,,,0
1504,1504,4. Jula,,44.6850027,20.6620293,2,,0,,,0
1505,1505,Trafostanica,,44.6804239,20.6626444,2,,0,,,0
1506,1506,Trafostanica,,44.6802008,20.6625599,2,,0,,,0
1507,1507,Dom Kulture,,44.6762098,20.6597031,2,,0,,,0
1508,1508,Dom Kulture,,44.6764122,20.6608992,2,,0,,,0
1509,1509,Crkva Sv. Trojice,,44.6755516,20.6564975,2,,0,,,0
1510,1510,Crkva Sv. Trojice,,44.6754451,20.6564796,2,,0,,,0
1511,1511,Zaklopača,,44.6756631,20.6517635,2,,0,,,0
1512,1512,Zaklopača,,44.6754053,20.6527993,2,,0,,,0
1513,1513,Svetosavska,,44.7365173,20.6151896,2,,0,,,0
1514,1514,Svetosavska,,44.7366995,20.615382,2,,0,,,0
1515,1515,Mali Lug,,44.7386935,20.6189158,2,,0,,,0
1516,1516,Mali Lug,,44.7387599,20.6187952,2,,0,,,0
1517,1517,Prokop,,44.7388611,20.6251288,2,,0,,,0
1518,1518,Prokop,,44.739022,20.6247795,2,,0,,,0
1519,1519,Kralja Petra Prvog,,44.7390538,20.6302622,2,,0,,,0
1520,1520,Kralja Petra Prvog,,44.7391432,20.630255,2,,0,,,0
1521,1521,Duboko,,44.7390109,20.6379041,2,,0,,,0
1522,1522,Duboko,,44.7391223,20.6380751,2,,0,,,0
1523,1523,Ritopek /Ulaz/,,44.7382658,20.6445162,2,,0,,,0
1524,1524,Ritopek /Ulaz/,,44.7383258,20.644595,2,,0,,,0
1525,1525,Ritopek /Škola/,,44.7380509,20.650682,2,,0,,,0
1526,1526,Ritopek /Škola/,,44.7381399,20.6507474,2,,0,,,0
1527,1527,Ritopek /Centar/,,44.7386009,20.6548287,2,,0,,,0
1528,1528,Prvog Maja,,44.731754,20.6037396,2,,0,,,0
1529,1529,Prvog Maja,,44.7315214,20.60391,2,,0,,,0
1530,1530,Boleč /Centar/,,44.7284724,20.6044418,2,,0,,,0
1531,1531,Boleč /Centar/,,44.7290329,20.6040831,2,,0,,,0
1532,1532,Virska,,44.7236742,20.6068994,2,,0,,,0
1533,1533,Virska,,44.7245677,20.6065659,2,,0,,,0
1534,1534,Boleč,,44.7223463,20.6075629,2,,0,,,0
1535,1535,Ustanička,,44.7849175,20.517321,1,,0,,,0
1536,1536,Skladište Boja,,44.7390255,20.5937832,2,,0,,,0
1537,1537,Skladište Boja,,44.7391398,20.5941185,2,,0,,,0
1538,1538,Elektrodistribucija,,44.7354635,20.5897505,2,,0,,,0
1539,1539,Elektrodistribucija,,44.735131,20.5896025,2,,0,,,0
1540,1540,Stari Put Za Boleč,,44.7306334,20.5842716,2,,0,,,0
1541,1541,Stari Put Za Boleč,,44.7301375,20.5839166,2,,0,,,0
1542,1542,Leštane /Ulaz/,,44.7284032,20.5758459,2,,0,,,0
1543,1543,Leštane /Izlaz/,,44.7280536,20.5757746,2,,0,,,0
1544,1544,Leštane,,44.7304255,20.5754221,2,,0,,,0
1547,1547, Zdravstvena Stanica  Leštane I Vinča,,44.7465041,20.5999468,2,,0,,,0
1548,1548,Babin Lug,,44.7487046,20.6044057,2,,0,,,0
1549,1549,Babin Lug,,44.7483095,20.6031985,2,,0,,,0
1550,1550,Vinča /Ulaz/,,44.7501649,20.606642,2,,0,,,0
1551,1551,Vinča /Ulaz/,,44.7504783,20.6069077,2,,0,,,0
1552,1552,Mike Petrovića Alasa,,44.7532892,20.610842,2,,0,,,0
1553,1553,Mike Petrovića Alasa,,44.7533099,20.6106581,2,,0,,,0
1554,1554,Svetosavska,,44.7557817,20.6133122,2,,0,,,0
1555,1555,Svetosavska,,44.7561911,20.6135412,2,,0,,,0
1556,1556,Vinča /Škola/,,44.7582367,20.6163254,2,,0,,,0
1557,1557,Vinča /Škola/,,44.7583842,20.6163423,2,,0,,,0
1558,1558,Vinčanska,,44.7624361,20.6216252,2,,0,,,0
1559,1559,Vinčanska,,44.7622649,20.6213887,2,,0,,,0
1560,1560,Miloša Obrenovića ,,44.7648518,20.6161603,2,,0,,,0
1561,1561,Miloša Obrenovića ,,44.7647975,20.6160826,2,,0,,,0
1562,1562,Vinča,,44.7671304,20.6106591,2,,0,,,0
1563,1563,Kefalonijska,,44.730482,20.4832156,2,,0,,,0
1564,1564,Prvomajska,,44.783707,20.5212183,1,,0,,,0
1565,1565,Prvomajska,,44.7840212,20.5206712,1,,0,,,0
1566,1566,Narodnog Fronta,,44.7710806,20.535531,2,,0,,,0
1567,1567,Narodnog Fronta,,44.7714215,20.5357026,2,,0,,,0
1568,1568,Naselje Klenak,,44.7638798,20.5327716,2,,0,,,0
1569,1569,Naselje Klenak,,44.7645738,20.5332717,2,,0,,,0
1570,1570,Lipovačka,,44.7614815,20.5306878,2,,0,,,0
1571,1571,Lipovačka,,44.7613368,20.5306816,2,,0,,,0
1572,1572,Mz Vml,,44.7602608,20.5251856,2,,0,,,0
1573,1573,Mz Vml,,44.7600929,20.5253888,2,,0,,,0
1574,1574,Vizantijska ,,44.7578736,20.5254296,2,,0,,,0
1575,1575,Vizantijska ,,44.7579915,20.5255822,2,,0,,,0
1576,1576,Vml,,44.7563035,20.5291532,2,,0,,,0
1577,1577,Zvezdara /Pijaca/,,44.7940841,20.5045231,1,,0,,,0
1578,1578,Zvezdara /Pijaca/,,44.7939119,20.5043947,1,,0,,,0
1579,1579,Pirandelova,,44.7772495,20.5406132,2,,0,,,0
1580,1580,Pirandelova,,44.7768554,20.5391538,2,,0,,,0
1581,1581,Dom Zdravlja,,44.7656148,20.5581245,2,,0,,,0
1582,1582,Dom Zdravlja,,44.7658814,20.5595038,2,,0,,,0
1583,1583,Kopaonička,,44.7645144,20.5542109,2,,0,,,0
1584,1584,Kopaonička,,44.7644918,20.5544071,2,,0,,,0
1585,1585,Stepe Stepanovića,,44.7627936,20.5494712,2,,0,,,0
1586,1586,Stepe Stepanovića,,44.7627091,20.5496151,2,,0,,,0
1587,1587,Željka Milivojevića,,44.7591702,20.5511111,2,,0,,,0
1588,1588,Željka Milivojevića,,44.759412,20.551172,2,,0,,,0
1589,1589,Radisava Ignjatovića,,44.7569219,20.5519362,2,,0,,,0
1590,1590,Radisava Ignjatovića,,44.7567626,20.5522549,2,,0,,,0
1591,1591,Kaluđerica /Centar/,,44.7532738,20.55386,2,,0,,,0
1592,1592,Kaluđerica /Centar/,,44.7532825,20.554029,2,,0,,,0
1593,1593,Isidora Blagojevića,,44.7526627,20.556368,2,,0,,,0
1594,1594,Isidora Blagojevića,,44.7524185,20.5559111,2,,0,,,0
1595,1595,Kaluđerica,,44.752103,20.5607718,2,,0,,,0
1596,1596,Crkva,,44.7229267,20.3755991,2,,0,,,0
1597,1597,Voždovac-Okretnica,,44.7608941,20.4838843,1,,0,,,0
1598,1598,Voždovac,,44.7611712,20.4837068,1,,0,,,0
1599,1599,Banjica 2,,44.751757,20.480303,1,,0,,,0
1600,1600,Banjica 2,,44.752039,20.480239,1,,0,,,0
1601,1601,Riste Stefanovića,,44.7502465,20.479407,2,,0,,,0
1602,1602,Riste Stefanovića,,44.7500279,20.4802819,2,,0,,,0
1603,1603,Voje Radića,,44.7467636,20.4769871,2,,0,,,0
1604,1604,Voje Radića,,44.7463791,20.4772823,2,,0,,,0
1605,1605,Jajinci /Dom Zdravlja/,,44.740451,20.4859208,2,,0,,,0
1606,1606,Jajinci /Dom Zdravlja/,,44.740976,20.4855199,2,,0,,,0
1607,1607,Milutina Miljkovića,,44.7352645,20.4837743,2,,0,,,0
1608,1608,Milutina Miljkovića,,44.7352203,20.4838905,2,,0,,,0
1609,1609,Spomen Park Jajinci,,44.7272679,20.4863345,2,,0,,,0
1610,1610,Spomen Park Jajinci,,44.7295973,20.4842591,2,,0,,,0
1611,1611,Rakovica Selo (Spomen Česma),,44.7265832,20.4950854,2,,0,,,0
1612,1612,Rakovica Selo (Spomen Česma),,44.7264974,20.4943679,2,,0,,,0
1613,1613,Rakovica Selo,,44.7216495,20.498201,2,,0,,,0
1614,1614,Rakovica Selo,,44.7217045,20.4983434,2,,0,,,0
1615,1615,Kružni Put,,44.720786,20.5033529,2,,0,,,0
1616,1616,Kružni Put,,44.7210824,20.5033425,2,,0,,,0
1617,1617,Beli Potok /Kumbara/,,44.7107962,20.5060641,2,,0,,,0
1618,1618,Beli Potok /Kumbara/,,44.7108029,20.5062134,2,,0,,,0
1619,1619,Pošta,,44.7011753,20.5041936,2,,0,,,0
1620,1620,Pošta,,44.7017364,20.5048527,2,,0,,,0
1621,1621,Avala,,44.6962477,20.5017985,2,,0,,,0
1622,1622,Avala,,44.6966666,20.5020376,2,,0,,,0
1623,1623,Mz Pinosava,,44.6954761,20.4930297,2,,0,,,0
1624,1624,Mz Pinosava,,44.6955051,20.4938478,2,,0,,,0
1625,1625,Oš Vasa Čarapić,,44.6951059,20.4892205,2,,0,,,0
1626,1626,Oš Vasa Čarapić,,44.6949923,20.4895767,2,,0,,,0
1627,1627,Zadruga,,44.6968134,20.4839058,2,,0,,,0
1628,1628,Zadruga,,44.6967972,20.4834446,2,,0,,,0
1629,1629,Groblje,,44.696605,20.478902,2,,0,,,0
1630,1630,Put Za Beli Potok,,44.7064123,20.5092013,2,,0,,,0
1631,1631,Put Za Beli Potok,,44.7066643,20.5090372,2,,0,,,0
1632,1632,Beli Potok /Ulaz/,,44.7037771,20.513338,2,,0,,,0
1633,1633,Beli Potok /Ulaz/,,44.704252,20.5148478,2,,0,,,0
1634,1634,Beli Potok /Centar/,,44.7053972,20.518742,2,,0,,,0
1635,1635,Oš Vojvoda Putnik,,44.6674007,20.4986146,2,,0,,,0
1636,1636,Minel 3,,44.6686908,20.491859,2,,0,,,0
1637,1637,Minel 3,,44.6685623,20.492279,2,,0,,,0
1638,1638,Minel 2,,44.667071,20.4882984,2,,0,,,0
1639,1639,Padinska Skela 1,,44.945472,20.424453,2,,0,,,0
1640,1640,Deponija,,44.7288326,20.4348309,2,,0,,,0
1641,1641,Deponija,,44.729406,20.434756,2,,0,,,0
1642,1642,Kijevo,,44.7252659,20.4379242,2,,0,,,0
1643,1643,Kijevo,,44.7255483,20.4383769,2,,0,,,0
1644,1644,Ispod Tunela,,44.7244645,20.4426666,2,,0,,,0
1645,1645,Ispod Tunela,,44.7245608,20.442479,2,,0,,,0
1646,1646,Spomenik,,44.7229786,20.4456872,2,,0,,,0
1647,1647,Resnik /Izlaz/,,44.7197037,20.447911,2,,0,,,0
1648,1648,Resnik /Izlaz/,,44.7192677,20.4479711,2,,0,,,0
1649,1649,Spomenik,,44.7226849,20.4461858,2,,0,,,0
1650,1650,Palih Boraca,,44.7174523,20.4484299,2,,0,,,0
1651,1651,Minel 2,,44.6673357,20.4887757,2,,0,,,0
1652,1652,Čukarica,,44.7863687,20.4143419,1,,0,,,0
1653,1653,Čukarica,,44.786466,20.4150183,1,,0,,,0
1654,1654,Kongrap,,44.7332335,20.3620074,2,,0,,,0
1655,1655,Kongrap,,44.7333182,20.362222,2,,0,,,0
1656,1656,Ivo Lola Ribar,,44.7272754,20.3684364,2,,0,,,0
1657,1657,Nićiforovićeva,,44.7232934,20.3687885,2,,0,,,0
1658,1658,Nićiforovićeva,,44.7230582,20.3687763,2,,0,,,0
1659,1659,Železnička Rampa,,44.7203436,20.3674186,2,,0,,,0
1660,1660,Železnička Rampa,,44.7207401,20.3672956,2,,0,,,0
1661,1661,Stevana Filipovića,,44.716659,20.368126,2,,0,,,0
1662,1662,Stevana Filipovića,,44.717595,20.36821,2,,0,,,0
1663,1663,Žikice Jovanovića,,44.7146917,20.368165,2,,0,,,0
1664,1664,Žikice Jovanovića,,44.7141426,20.3682256,2,,0,,,0
1665,1665,Sare Bernar,,44.6966578,20.3783106,2,,0,,,0
1666,1666,Sare Bernar,,44.6973059,20.3782566,2,,0,,,0
1667,1667,Gorica,,44.6932573,20.3803679,2,,0,,,0
1668,1668,Sremčica /Ulaz/,,44.6876693,20.3814697,2,,0,,,0
1669,1669,Sremčica /Ulaz/,,44.6887067,20.3815579,2,,0,,,0
1670,1670,Šumske Ekonomije,,44.6839223,20.3835413,2,,0,,,0
1671,1671,Šumske Ekonomije,,44.685528,20.3827207,2,,0,,,0
1672,1672,Obrenovačka,,44.6820477,20.3850876,2,,0,,,0
1673,1673,Obrenovačka,,44.681197,20.3859879,2,,0,,,0
1674,1674,Sremčica (Centar),,44.6766139,20.3909971,2,,0,,,0
1675,1675,Sremčica (Centar),,44.6770822,20.3906038,2,,0,,,0
1676,1676,Jeličićev Venac,,44.6737064,20.3941031,2,,0,,,0
1677,1677,Jeličićev Venac,,44.6740343,20.3940418,2,,0,,,0
1678,1678,Tomaška,,44.6705351,20.3963427,2,,0,,,0
1679,1679,Tomaška,,44.6708974,20.3962417,2,,0,,,0
1680,1680,Tesarska,,44.6654923,20.399449,2,,0,,,0
1681,1681,Tesarska,,44.6658514,20.3995719,2,,0,,,0
1682,1682,Mirkovićeva,,44.6629612,20.3981827,2,,0,,,0
1683,1683,Mirkovićeva,,44.6634379,20.398729,2,,0,,,0
1684,1684,Vašarska,,44.6596486,20.3975683,2,,0,,,0
1685,1685,Vašarska,,44.6604397,20.3977001,2,,0,,,0
1686,1686,Sremčica /Izlaz/,,44.6553142,20.3994119,2,,0,,,0
1687,1687,Sremčica /Izlaz/,,44.656102,20.3989289,2,,0,,,0
1688,1688,Sremčica,,44.6504103,20.403984,2,,0,,,0
1689,1689,Sremčica,,44.6506588,20.4037419,2,,0,,,0
1690,1690,Vidikovac,,44.7316011,20.4206131,2,,0,,,0
1691,1691,Banjica 2,,44.752088,20.479854,1,,0,,,0
1692,1692,Naselje Petlovo Brdo,,44.72353,20.41745,2,,0,,,0
1693,1693,Naselje Petlovo Brdo,,44.72424,20.41831,2,,0,,,0
1694,1694,Grmovac /Ulaz/,,44.855664,20.1662549,2,,0,,,0
1695,1695,Put Za Dunavac,,45.064564,20.3804129,2,,0,,,0
1696,1696,Grmovac /Ulaz/,,44.8555862,20.1669857,2,,0,,,0
1697,1697,Novo Naselje /Rušanj/,,44.68221,20.4286021,2,,0,,,0
1698,1698,Novo Naselje /Rušanj/,,44.6822376,20.4287086,2,,0,,,0
1699,1699,Ilije Miličevića,,44.6795172,20.4317378,2,,0,,,0
1700,1700,Ilije Miličevića,,44.6795276,20.4314689,2,,0,,,0
1701,1701,Oslobođenja,,44.6828305,20.436234,2,,0,,,0
1702,1702,Oslobođenja,,44.6827622,20.4356077,2,,0,,,0
1703,1703,Mz Rušanj,,44.6823377,20.4393176,2,,0,,,0
1704,1704,Mz Rušanj,,44.6824374,20.4392646,2,,0,,,0
1705,1705,Like Ružića,,44.681281,20.4458002,2,,0,,,0
1706,1706,Like Ružića,,44.6812459,20.4453215,2,,0,,,0
1707,1707,13. Septembar,,44.6828315,20.4515502,2,,0,,,0
1708,1708,Drage Vukićević,,44.6871363,20.4385217,2,,0,,,0
1709,1709,Drage Vukićević,,44.6865969,20.4385215,2,,0,,,0
1710,1710,Oslobođenja 1,,44.6891464,20.4391551,2,,0,,,0
1711,1711,Oslobođenja 1,,44.689286,20.4392901,2,,0,,,0
1712,1712,Oslobođenja 2,,44.6904112,20.4418504,2,,0,,,0
1713,1713,Oslobođenja 2,,44.6899643,20.4411008,2,,0,,,0
1714,1714,Boleč /Crkva/,,44.735967,20.6087937,2,,0,,,0
1715,1715,Boleč /Crkva/,,44.7357848,20.6085571,2,,0,,,0
1716,1716,Orlovača Groblje,,44.7094459,20.411617,2,,0,,,0
1717,1717,Olge Jovičić,,44.8496973,20.4674168,1,,0,,,0
1718,1718,Crkva,,44.7222629,20.3764917,2,,0,,,0
1719,1719,Milana Zečara,,44.8487692,20.4712834,1,,0,,,0
1720,1720,Augusta Šenoe,,44.85276,20.47297,1,,0,,,0
1721,1721,Augusta Šenoe,,44.85276,20.47297,1,,0,,,0
1722,1722,Put Za Kotež,,44.85171,20.47961,1,,0,,,0
1723,1723,Put Za Kotež,,44.8520509,20.4785726,1,,0,,,0
1724,1724,Posavska,,44.91111,20.266248,2,,0,,,0
1725,1725,Src  Surčin (Ulaz),,44.788071,20.234255,2,,0,,,0
1726,1726,Savski Trg (Savska),,44.806701,20.45482,1,,0,,,0
1727,1727,Oš Petar Kočić,,44.8416323,20.3844226,1,,0,,,0
1728,1728,Atanasija Pulje,,44.8355679,20.382531,1,,0,,,0
1729,1729,Hala Aleksandar Nikolić,,44.8162161,20.4832484,1,,0,,,0
1730,1730,Vaznesenjska Crkva,,44.8079497,20.4620508,1,,0,,,0
1731,1731,Španskih Boraca,,44.8104532,20.4143661,1,,0,,,0
1732,1732,Put Za Dunavac,,45.0655455,20.3805356,2,,0,,,0
1733,1733,Preliv,,45.0212911,20.3988915,2,,0,,,0
1734,1734,Preliv,,45.0217847,20.3981239,2,,0,,,0
1735,1735,Nasipska Čuvarnica,,45.0327949,20.3937348,2,,0,,,0
1736,1736,Nasipska Čuvarnica,,45.0335577,20.3934554,2,,0,,,0
1737,1737,Japanski Cvet,,45.0520839,20.3913554,2,,0,,,0
1738,1738,Japanski Cvet,,45.0503225,20.39202,2,,0,,,0
1739,1739,Dunavac,,45.0670716,20.383277,2,,0,,,0
1740,1740,Studentski Grad,,44.8275399,20.3984802,1,,0,,,0
1741,1741,Aleksandra Dubčeka,,44.8392754,20.4105433,1,,0,,,0
1742,1742,Stevana Lukovića,,44.743047,20.4350135,2,,0,,,0
1743,1743,Stevana Lukovića,,44.7440696,20.4368141,2,,0,,,0
1744,1744,Stojana Jankovića,,44.7408157,20.4317775,2,,0,,,0
1745,1745,Stojana Jankovića,,44.7415409,20.4329497,2,,0,,,0
1746,1746,Slavka Rodića,,44.736575,20.430097,2,,0,,,0
1747,1747,Slavka Rodića,,44.7370361,20.4305816,2,,0,,,0
1748,1748,Oš 14. Oktobar,,44.7324069,20.4274789,2,,0,,,0
1749,1749,Oš 14. Oktobar,,44.7336518,20.4274036,2,,0,,,0
1750,1750,17. Oktobra,,44.7301442,20.4277223,2,,0,,,0
1751,1751,17. Oktobra,,44.7304449,20.4278499,2,,0,,,0
1752,1752,Sretena Mladenovića,,44.726735,20.4316948,2,,0,,,0
1753,1753,Sretena Mladenovića,,44.7268793,20.4318214,2,,0,,,0
1754,1754,Tošin Bunar,,44.822087,20.3998623,1,,0,,,0
1755,1755,Tošin Bunar,,44.8215336,20.3997781,1,,0,,,0
1756,1756,Ledine,,44.8052443,20.3483621,1,,0,,,0
1757,1757,Ledine,,44.8052049,20.3487774,1,,0,,,0
1758,1758,Vila Mara,,44.8012855,20.3352986,2,,0,,,0
1759,1759,Vila Mara,,44.8007466,20.3342003,2,,0,,,0
1760,1760,Vikend Naselje,,44.7992969,20.3246607,2,,0,,,0
1761,1761,Vikend Naselje,,44.7992822,20.3253346,2,,0,,,0
1762,1762,Malinjak,,44.7984883,20.319001,2,,0,,,0
1763,1763,Malinjak,,44.7984021,20.3194355,2,,0,,,0
1764,1764,Galovica,,44.7974481,20.3117854,2,,0,,,0
1765,1765,Galovica,,44.7974186,20.3126441,2,,0,,,0
1766,1766,Orešac,,44.7964848,20.3051716,2,,0,,,0
1767,1767,Orešac,,44.7964045,20.3056454,2,,0,,,0
1768,1768,Surčin /Ulaz/,,44.7953897,20.2974603,2,,0,,,0
1769,1769,Surčin /Ulaz/,,44.7952663,20.2977271,2,,0,,,0
1770,1770,Crkva,,44.7944016,20.2903945,2,,0,,,0
1771,1771,Crkva,,44.7943148,20.290938,2,,0,,,0
1772,1772,Marka Raba,,44.793562,20.2846261,2,,0,,,0
1773,1773,Marka Raba,,44.793668,20.2864851,2,,0,,,0
1774,1774,Skopljanska,,44.7925888,20.2781483,2,,0,,,0
1775,1775,Skopljanska,,44.7927301,20.2800437,2,,0,,,0
1776,1776,Rasadnik,,44.8307026,20.3893489,1,,0,,,0
1777,1777,Src Surčin,,44.7880049,20.2316729,2,,0,,,0
1778,1778,Surčin /Centar/,,44.7909292,20.2694345,2,,0,,,0
1779,1779,Naselje Česma,,44.6641337,20.4851852,2,,0,,,0
1780,1780,Krušedolska,,44.7894004,20.2612383,2,,0,,,0
1781,1781,Krušedolska,,44.7894895,20.2623689,2,,0,,,0
1782,1782,Braće Nikolić,,44.7833741,20.2538541,2,,0,,,0
1783,1783,Braće Nikolić,,44.7839139,20.2542923,2,,0,,,0
1784,1784,Rimski Kanal,,44.77844,20.245562,2,,0,,,0
1785,1785,Rimski Kanal,,44.778868,20.246924,2,,0,,,0
1786,1786,Put Za Jakovo,,44.7761032,20.2402445,2,,0,,,0
1787,1787,Put Za Jakovo,,44.7763653,20.2411484,2,,0,,,0
1788,1788,Silosi,,44.7702286,20.2429556,2,,0,,,0
1789,1789,Silosi,,44.7702176,20.243156,2,,0,,,0
1790,1790,Servisi,,44.7617435,20.2521794,2,,0,,,0
1791,1791,Servisi,,44.7625284,20.2512898,2,,0,,,0
1792,1792,Sremska,,44.7597574,20.254841,2,,0,,,0
1793,1793,Sremska,,44.7595965,20.2551909,2,,0,,,0
1794,1794,Sestara Krstonošić,,44.7560315,20.2583146,2,,0,,,0
1795,1795,Sestara Krstonošić,,44.7568398,20.2576788,2,,0,,,0
1796,1796,Mz Jakovo,,44.7537157,20.2604685,2,,0,,,0
1797,1797,Mz Jakovo,,44.754514,20.2598952,2,,0,,,0
1798,1798,Đorđa Radovića,,44.749091,20.2647703,2,,0,,,0
1799,1799,Đorđa Radovića,,44.7495835,20.2644703,2,,0,,,0
1800,1800,Oslobođenja,,44.7464912,20.2653744,2,,0,,,0
1801,1801,Oslobođenja,,44.7462088,20.265452,2,,0,,,0
1802,1802,Jakovo,,44.7453373,20.2701957,2,,0,,,0
1803,1803,Braće Suzić,,44.7978555,20.2645212,2,,0,,,0
1804,1804,Braće Suzić,,44.7975035,20.2654908,2,,0,,,0
1805,1805,Surčin /Izlaz/,,44.8017938,20.2578068,2,,0,,,0
1806,1806,Surčin /Izlaz/,,44.8011906,20.2585063,2,,0,,,0
1807,1807,Surčinska Petlja,,44.8062705,20.2508075,2,,0,,,0
1808,1808,Surčinska Petlja,,44.8061435,20.2507645,2,,0,,,0
1809,1809,Industrijska Zona Dobanovci,,44.811512,20.2425589,2,,0,,,0
1810,1810,Industrijska Zona Dobanovci,,44.8109536,20.2435719,2,,0,,,0
1811,1811,Naselje Pik,,44.816952,20.2340204,2,,0,,,0
1812,1812,Naselje Pik,,44.8172427,20.2333845,2,,0,,,0
1813,1813,Bezdan,,44.8198519,20.2294645,2,,0,,,0
1814,1814,Bezdan,,44.8198851,20.2292481,2,,0,,,0
1815,1815,Stevana Jovanovića,,44.8247599,20.225239,2,,0,,,0
1816,1816,Stevana Jovanovića,,44.8247499,20.2250814,2,,0,,,0
1817,1817,Dobanovci /Centar/,,44.8283407,20.2224055,2,,0,,,0
1818,1818,Dobanovci /Centar/,,44.8271901,20.2231339,2,,0,,,0
1819,1819,Žarka Jelića,,44.8321282,20.2194611,2,,0,,,0
1820,1820,Žarka Jelića,,44.8322017,20.2192424,2,,0,,,0
1821,1821,Slovački Dom,,44.8346888,20.2174592,2,,0,,,0
1822,1822,Slovački Dom,,44.8350455,20.2170542,2,,0,,,0
1823,1823,Fruškogorska,,44.8375682,20.2155777,2,,0,,,0
1824,1824,Fruškogorska,,44.8379315,20.215195,2,,0,,,0
1825,1825,Dobanovci /Ulaz/,,44.8403595,20.2138701,2,,0,,,0
1826,1826,Dobanovci /Ulaz/,,44.8404372,20.2136944,2,,0,,,0
1827,1827,Partizanska 1,,44.8698927,20.2041264,2,,0,,,0
1828,1828,Partizanska 1,,44.8690357,20.2040383,2,,0,,,0
1829,1829,Ugrinovci /Ulaz/,,44.8714825,20.1996851,2,,0,,,0
1830,1830,Ugrinovci /Ulaz/,,44.8712409,20.200267,2,,0,,,0
1831,1831,Beogradska,,44.8736218,20.1929642,2,,0,,,0
1832,1832,Beogradska,,44.8732561,20.1937168,2,,0,,,0
1833,1833,Ugrinovci /Centar/,,44.8756954,20.1872524,2,,0,,,0
1834,1834,Ugrinovci /Centar/,,44.8754231,20.1876912,2,,0,,,0
1835,1835,Ugrinovci,,44.8781038,20.1799571,2,,0,,,0
1836,1836,Kej Oslobođenja,,44.843042,20.415148,1,,0,,,0
1837,1837,Bečmen Naselje,,44.778308,20.2196356,2,,0,,,0
1838,1838,Bečmen Naselje,,44.7781432,20.2201382,2,,0,,,0
1839,1839,Maksin Sokak,,44.7792521,20.2116179,2,,0,,,0
1840,1840,Maksin Sokak,,44.7791757,20.2113364,2,,0,,,0
1841,1841,Bečmen /Centar/,,44.780819,20.202533,2,,0,,,0
1842,1842,Bečmen /Centar/,,44.7805514,20.2034533,2,,0,,,0
1843,1843,Bečmenskih Ilegalaca,,44.7825228,20.1956083,2,,0,,,0
1844,1844,Bečmenskih Ilegalaca,,44.7823504,20.195734,2,,0,,,0
1845,1845,Bečmen Ekonomija,,44.786427,20.1858526,2,,0,,,0
1846,1846,Bečmen Ekonomija,,44.7862456,20.185979,2,,0,,,0
1847,1847,Petrovčić /Ulaz/,,44.7936791,20.1511324,2,,0,,,0
1848,1848,Petrovčić /Ulaz/,,44.7935652,20.1517094,2,,0,,,0
1849,1849,Petrovčić /Centar/,,44.7941452,20.144681,2,,0,,,0
1850,1850,Petrovčić /Centar/,,44.7940796,20.1445733,2,,0,,,0
1851,1851,Petrovčić,,44.7949267,20.1355916,2,,0,,,0
1852,1852,Bežanijska Kosa,,44.8271015,20.3887901,1,,0,,,0
1853,1853,Bežanijska Kosa,,44.8265651,20.3887579,1,,0,,,0
1854,1854,Zmaj,,44.8314398,20.3702985,1,,0,,,0
1855,1855,Zmaj,,44.8309329,20.3718106,1,,0,,,0
1856,1856,Grmeč,,44.8326436,20.360752,1,,0,,,0
1857,1857,Grmeč,,44.8321836,20.3622599,1,,0,,,0
1858,1858,Ikarbus,,44.8339085,20.3470906,2,,0,,,0
1859,1859,Ikarbus,,44.8333837,20.3484433,2,,0,,,0
1860,1860,Naselje Radiofar,,44.8342147,20.310203,2,,0,,,0
1861,1861,Put Za Soko Salaš,,44.8337214,20.2866422,2,,0,,,0
1862,1862,Put Za Soko Salaš,,44.8333946,20.2857948,2,,0,,,0
1863,1863,Dobanovci /Groblje/,,44.8365522,20.2360211,2,,0,,,0
1864,1864,Partizanska,,44.8320437,20.233735,2,,0,,,0
1865,1865,Zemunska,,44.8299478,20.2290031,2,,0,,,0
1866,1866,Dobanovci /Centar/,,44.8279886,20.2237941,2,,0,,,0
1867,1867,Radovanovićevo,,44.6501774,20.3714866,2,,0,,,0
1868,1868,Veliki Trafo,,44.643926,20.378019,2,,0,,,0
1869,1869,Busije,,44.890949,20.229801,2,,0,,,0
1870,1870,Busije,,44.89206,20.233882,2,,0,,,0
1871,1871,Busije 2,,44.8832178,20.2126295,2,,0,,,0
1872,1872,Busije 2,,44.8841582,20.2137336,2,,0,,,0
1876,1876,Šangajska,,44.9010718,20.2593713,2,,0,,,0
1877,1877,Šangajska,,44.901023,20.2594475,2,,0,,,0
1878,1878,Grobljanska,,44.8773017,20.2071989,2,,0,,,0
1879,1879,Grobljanska,,44.8767501,20.2068578,2,,0,,,0
1880,1880,Zeleni Venac,,44.8139338,20.4560271,1,,0,,,0
1881,1881,Institut Za Kukuruz,,44.870292,20.3295447,2,,0,,,0
1882,1882,Institut Za Kukuruz,,44.8707138,20.3309044,2,,0,,,0
1883,1883,Braće Krnješevac,,44.8681815,20.3242643,2,,0,,,0
1884,1884,Braće Krnješevac,,44.8682101,20.3246526,2,,0,,,0
1885,1885,Vrtić Bubamara,,44.8709208,20.3224043,2,,0,,,0
1886,1886,Vrtić Bubamara,,44.8701086,20.3224699,2,,0,,,0
1887,1887,Franje Krča,,44.8725691,20.3238821,2,,0,,,0
1888,1888,Franje Krča,,44.8720409,20.323744,2,,0,,,0
1889,1889,Zemun Polje,,44.876337,20.318704,2,,0,,,0
1890,1890,Posavska,,44.910412,20.267136,2,,0,,,0
1891,1891,Milice Šuvaković,,44.8588112,20.3736385,2,,0,,,0
1892,1892,Milice Šuvaković,,44.858958,20.3740711,2,,0,,,0
1893,1893,Svetozara Papića,,44.8544911,20.3698919,2,,0,,,0
1894,1894,Svetozara Papića,,44.8545062,20.3702337,2,,0,,,0
1895,1895,Privredna Zona (Ulaz),,44.86243,20.35193,2,,0,,,0
1896,1896,Novi Beograd /Blok 72/,,44.802129,20.364408,1,,0,,,0
1897,1897,Kej Oslobođenja,,44.843641,20.41604,1,,0,,,0
1898,1898,Mali Trafo,,44.6392311,20.378215,2,,0,,,0
1899,1899,Josipa Telarevića,,44.71919,20.45163,2,,0,,,0
1900,1900,13. Maj,,44.8859356,20.3424574,2,,0,,,0
1901,1901,Drage Mihajlovića,,44.9124807,20.2646402,2,,0,,,0
1902,1902,Drage Mihajlovića,,44.9126713,20.2647372,2,,0,,,0
1903,1903,Dalmatinskih Brigada,,44.9137722,20.2673481,2,,0,,,0
1904,1904,Dalmatinskih Brigada,,44.9140247,20.2676787,2,,0,,,0
1905,1905,Batajnica,,44.915525,20.270794,2,,0,,,0
1906,1906,Blok Sutjeska,,44.8484387,20.486774,1,,0,,,0
1907,1907,Velika Moštanica - M,,44.6338165,20.3817935,2,,0,,,0
1908,1908,Besni Fok,,45.0019316,20.4090415,2,,0,,,0
1909,1909,Besni Fok,,45.0019548,20.4087675,2,,0,,,0
1910,1910,Železnik /Savska/,,44.7309239,20.3661584,2,,0,,,0
1911,1911,Naselje Česma,,44.6641972,20.4856568,2,,0,,,0
1912,1912,Bela Reka,,44.6575659,20.4745698,2,,0,,,0
1913,1913,Kolonija,,44.6661617,20.5037684,2,,0,,,0
1914,1914,Kolonija,,44.66612,20.50377,2,,0,,,0
1915,1915,"Src ""Surčin"" /Ulaz/",,44.7879712,20.2360638,2,,0,,,0
1916,1916,Mali Trafo,,44.6396246,20.378367,2,,0,,,0
1917,1917,Matice Srpske,,44.7865147,20.5356218,2,,0,,,0
1918,1918,Matice Srpske,,44.7868626,20.5351559,2,,0,,,0
1919,1919,Privredna Zona Makiš,,44.758507,20.347199,2,,0,,,0
1920,1920,Veliki Trafo,,44.6443426,20.3778373,2,,0,,,0
1921,1921,Radovanovićevo,,44.6507477,20.371271,2,,0,,,0
1922,1922,Blok 63,,44.8085323,20.3839288,1,,0,,,0
1923,1923,Blok 63,,44.808649,20.3842171,1,,0,,,0
1924,1924,Lipovačka,,44.6551989,20.3655743,2,,0,,,0
1925,1925,Kvantaška Pijaca,,44.8273977,20.3624932,1,,0,,,0
1929,1929,Mike Alasa,,44.7532643,20.3425858,2,,0,,,0
1931,1931,Put Za Železnik,,44.7419619,20.3604506,2,,0,,,0
1932,1932,Borča Raskršće,,44.8780939,20.4658363,2,,0,,,0
1933,1933,Baza Voždovac,,44.77907,20.49716,1,,0,,,0
1934,1934,Stanićeva,,44.6574142,20.3605355,2,,0,,,0
1935,1935,Naselje Belvil,,44.80423,20.40974,1,,0,,,0
1936,1936,Naselje Belvil,,44.80411,20.41077,1,,0,,,0
1937,1937,Kotež,,44.85157,20.46701,1,,0,,,0
1938,1938,Njegoševa,,44.886316,20.536083,2,,0,,,0
1939,1939,Kosmajska,,44.6675027,20.7127839,2,,0,,,0
1940,1940,Kosmajska,,44.6676313,20.7132192,2,,0,,,0
1941,1941,Centroprom,,44.8214271,20.4798788,1,,0,,,0
1942,1942,V. Moštanica /Centar/,,44.6658492,20.3533517,2,,0,,,0
1943,1943,Mz Železnik,,44.7242505,20.3728263,2,,0,,,0
1944,1944,Mz Železnik,,44.7242952,20.3729691,2,,0,,,0
1945,1945,Dobrivoja Jovanovića,,44.6736778,20.3518282,2,,0,,,0
1946,1946,V. Moštanica - Ekonom.,,44.6772939,20.3453445,2,,0,,,0
1947,1947,V. Moštanica - Crkva,,44.6841007,20.3407398,2,,0,,,0
1948,1948,Surčin /Mlin/,,44.7872186,20.2560536,2,,0,,,0
1949,1949,Surčin /Mlin/,,44.7872353,20.2562399,2,,0,,,0
1950,1950,Stevana Simića,,44.8977487,20.2500052,2,,0,,,0
1951,1951,Stevana Simića,,44.8979646,20.2508475,2,,0,,,0
1952,1952,Save Jovanovića,,44.7425129,20.4833341,2,,0,,,0
1953,1953,Novo Naselje,,44.8000306,20.3296138,2,,0,,,0
1954,1954,Novo Naselje,,44.8000294,20.3305789,2,,0,,,0
1955,1955,Surčin /Centar/,,44.7921622,20.2695004,2,,0,,,0
1956,1956,Pećani /Škola/,,44.6925072,20.3312971,2,,0,,,0
1957,1957,Blagoja Rankovića,,44.6976693,20.3236711,2,,0,,,0
1958,1958,Umka - Karađorđeva,,44.6907521,20.319405,2,,0,,,0
1959,1959,Umka-Izlaz,,44.6854683,20.3123408,2,,0,,,0
1960,1960,Umka-Centar,,44.6811913,20.305368,2,,0,,,0
1961,1961,Batajnica (Centar),,44.906376,20.274461,2,,0,,,0
1962,1962,Višnjica,,44.8303671,20.5472909,2,,0,,,0
1963,1963,Filipa Višnjića,,44.8501163,20.3852863,1,,0,,,0
1964,1964,Filipa Višnjića,,44.8499823,20.3858859,1,,0,,,0
1965,1965,Surčin,,44.7809477,20.2495708,2,,0,,,0
1966,1966,Surčin,,44.7812136,20.2509334,2,,0,,,0
1967,1967,Ostružnica 1,,44.7334362,20.3210257,2,,0,,,0
1968,1968,Seme,,44.746215,20.3579501,2,,0,,,0
1969,1969,Seme,,44.7463521,20.3577515,2,,0,,,0
1970,1970,Beogradelektro,,44.752423,20.3545158,2,,0,,,0
1971,1971,Beogradelektro,,44.7526664,20.3542648,2,,0,,,0
1972,1972,Jugolek,,44.7562567,20.3523924,2,,0,,,0
1973,1973,Jugolek,,44.7563167,20.3522312,2,,0,,,0
1974,1974,Bbp Makiš,,44.7649998,20.3535764,2,,0,,,0
1975,1975,Bbp Makiš,,44.7647837,20.3532203,2,,0,,,0
1976,1976,Makiška,,44.7831663,20.3941615,1,,0,,,0
1977,1977,Makiška,,44.7832477,20.3948541,1,,0,,,0
1978,1978,Mz Makiš,,44.7705162,20.3621118,2,,0,,,0
1979,1979,Železnik /Savska/,,44.7305486,20.3664139,2,,0,,,0
1980,1980,Železnik R,,44.7428163,20.3612795,2,,0,,,0
1981,1981,Pećani,,44.6977507,20.3176643,2,,0,,,0
1982,1982,Ostružnica 2,,44.7225734,20.3146843,2,,0,,,0
1983,1983,Sc Vizura,,44.8208741,20.3959961,1,,0,,,0
1984,1984,Put Za Src,,44.78108,20.25018,2,,0,,,0
1985,1985,Narodnih Heroja,,44.8225476,20.4069322,1,,0,,,0
1986,1986,Garaža Novi Beograd,,44.8073488,20.4058377,1,,0,,,0
1987,1987,Narodnih Heroja,,44.8236895,20.4054107,1,,0,,,0
1988,1988,Efeska,,44.8826831,20.4967598,2,,0,,,0
1989,1989,Efeska,,44.8828177,20.4972481,2,,0,,,0
1990,1990,Ulaz U Bečmen,,44.7773395,20.226436,2,,0,,,0
1991,1991,Ulaz U Bečmen,,44.7773168,20.2260406,2,,0,,,0
1992,1992,Đure Gajića,,44.8731116,20.3269579,2,,0,,,0
1993,1993,Crkva Svetog Dimitrija,,44.8203952,20.4116522,1,,0,,,0
1994,1994,Pedagoška Akademija,,44.7817387,20.4579331,1,,0,,,0
1995,1995,Pedagoška Akademija,,44.7827935,20.4579537,1,,0,,,0
1996,1996,Marka Čelebonovića,,44.8192133,20.382926,1,,0,,,0
1997,1997,Sanatorijum,,44.679095,20.5057144,2,,0,,,0
1998,1998,Sanatorijum,,44.6792432,20.5056476,2,,0,,,0
1999,1999,Čaršija,,44.6727038,20.5029261,2,,0,,,0
2000,2000,Čaršija,,44.6728964,20.5031419,2,,0,,,0
2001,2001,Kolonija,,44.666334,20.503846,2,,0,,,0
2002,2002,Kolonija,,44.6663667,20.5041623,2,,0,,,0
2003,2003,Železnička Stanica Ripanj,,44.66177,20.5081573,2,,0,,,0
2004,2004,Železnička Stanica Ripanj,,44.6618,20.50825,2,,0,,,0
2005,2005,Put Za Milovanoviće,,44.6578232,20.5115325,2,,0,,,0
2006,2006,Put Za Milovanoviće,,44.6576013,20.5117073,2,,0,,,0
2007,2007,Rašin Majdan,,44.6494386,20.5102604,2,,0,,,0
2008,2008,Rašin Majdan,,44.6492295,20.5103599,2,,0,,,0
2009,2009,Ripanj /Brdo/,,44.6430074,20.5144093,2,,0,,,0
2010,2010,Ripanj /Brdo/,,44.6430934,20.5143127,2,,0,,,0
2011,2011,Ripanj /Centar/,,44.6388977,20.5202056,2,,0,,,0
2012,2012,Ripanj /Centar/,,44.6390664,20.5200797,2,,0,,,0
2013,2013,Brđani /Simići/,,44.6314135,20.5209376,2,,0,,,0
2014,2014,Brđani /Simići/,,44.6313941,20.521046,2,,0,,,0
2015,2015,Put Za Žuti Breg,,44.6245184,20.5212002,2,,0,,,0
2016,2016,Put Za Žuti Breg,,44.624348,20.5213066,2,,0,,,0
2017,2017,Brđani /Škola/,,44.6198425,20.5117974,2,,0,,,0
2018,2018,Brđani /Škola/,,44.6197891,20.5121884,2,,0,,,0
2019,2019,Ripanj /Brđani/,,44.6167021,20.5016493,2,,0,,,0
2020,2020,Ripanj /Brđani/,,44.6166621,20.5011908,2,,0,,,0
2021,2021,Đure Gajića,,44.8725676,20.327603,2,,0,,,0
2022,2022,Draženovac 1,,44.6153839,20.4942215,2,,0,,,0
2023,2023,Draženovac 1,,44.6153912,20.4937155,2,,0,,,0
2024,2024,Draženovac 2,,44.6170047,20.4820546,2,,0,,,0
2025,2025,Draženovac 2,,44.6168856,20.4823436,2,,0,,,0
2026,2026,Draženovac 3,,44.6215416,20.4761729,2,,0,,,0
2027,2027,Draženovac 3,,44.6215043,20.4760496,2,,0,,,0
2028,2028,Draženovac,,44.6230149,20.4692491,2,,0,,,0
2029,2029,Draženovac,,44.6227301,20.4697128,2,,0,,,0
2030,2030,Glumčevo Brdo /Gorčinac/,,44.6182207,20.466119,3,,0,,,0
2031,2031,Glumčevo Brdo /Gorčinac/,,44.6182803,20.4660252,3,,0,,,0
2032,2032,Glumčevo Brdo,,44.6151848,20.4548045,3,,0,,,0
2033,2033,Šumareva Kuća,,44.6803891,20.5181416,2,,0,,,0
2034,2034,Šumareva Kuća,,44.6804453,20.5183803,2,,0,,,0
2035,2035,Put Za Zuce,,44.6808413,20.5331541,2,,0,,,0
2036,2036,Put Za Zuce,,44.6809419,20.5329275,2,,0,,,0
2037,2037,Zuce (Ulaz),,44.6854117,20.5474078,2,,0,,,0
2038,2038,Zuce (Ulaz),,44.6855743,20.547419,2,,0,,,0
2039,2039,Zuce /Prodavnica/,,44.6909544,20.552609,2,,0,,,0
2040,2040,Zuce /Prodavnica/,,44.690471,20.5521572,2,,0,,,0
2041,2041,Zuce /Ambulanta/,,44.6942858,20.5528331,2,,0,,,0
2042,2042,Zuce /Ambulanta/,,44.6941706,20.5526674,2,,0,,,0
2043,2043,Zuce /Centar/,,44.6990226,20.5568386,2,,0,,,0
2044,2044,Zuce /Centar/,,44.698822,20.5568818,2,,0,,,0
2045,2045,Zuce /Crkva/,,44.7021751,20.5527602,2,,0,,,0
2046,2046,Zuce /Crkva/,,44.7020079,20.5528324,2,,0,,,0
2047,2047,Zuce /Brđani 1/,,44.7034944,20.5451314,2,,0,,,0
2048,2048,Zuce /Brđani 1/,,44.7034838,20.5452536,2,,0,,,0
2049,2049,Zuce /Brđani 2/,,44.699523,20.5420043,2,,0,,,0
2050,2050,Zuce /Brđani 2/,,44.6996361,20.542281,2,,0,,,0
2051,2051,Zuce,,44.6966322,20.5397136,2,,0,,,0
2052,2052,Jakovo Čelik,,44.7449938,20.2534033,2,,0,,,0
2053,2053,Jakovo Čelik,,44.7457326,20.2539116,2,,0,,,0
2054,2054,Boljevci /Zapis/,,44.7331432,20.2462933,2,,0,,,0
2055,2055,Boljevci /Zapis/,,44.7326617,20.2460809,2,,0,,,0
2056,2056,Šest Topola,,44.7275165,20.2410296,2,,0,,,0
2057,2057,Šest Topola,,44.7281837,20.2418376,2,,0,,,0
2058,2058,Ribarska,,44.7215395,20.2330392,2,,0,,,0
2059,2059,Ribarska,,44.7214095,20.2326182,2,,0,,,0
2060,2060,Relje Oparušića,,44.7217004,20.2244112,2,,0,,,0
2061,2061,Relje Oparušića,,44.7216873,20.2234614,2,,0,,,0
2062,2062,Boljevci /Centar/,,44.7225577,20.2168199,2,,0,,,0
2063,2063,Boljevci /Centar/,,44.7225173,20.2162547,2,,0,,,0
2064,2064,Boljevci /Izlaz/,,44.7241223,20.2087304,2,,0,,,0
2065,2065,Boljevci /Izlaz/,,44.7240778,20.2085975,2,,0,,,0
2066,2066,Živača Ribnjak,,44.733761,20.1938117,2,,0,,,0
2067,2067,Živača Ribnjak,,44.7335529,20.1940854,2,,0,,,0
2068,2068,Živača /Izlaz/,,44.7323595,20.1695732,2,,0,,,0
2069,2069,Živača /Izlaz/,,44.7327521,20.1702589,2,,0,,,0
2070,2070,Bojčinska Šuma,,44.7268457,20.1641088,2,,0,,,0
2071,2071,Bojčinska Šuma,,44.7266119,20.1641182,2,,0,,,0
2072,2072,Progar /Ulaz/,,44.7206151,20.1603353,2,,0,,,0
2073,2073,Progar /Ulaz/,,44.7205231,20.1604475,2,,0,,,0
2074,2074,Progar /Centar/,,44.7148347,20.1611485,2,,0,,,0
2075,2075,Surčin /Centar/,,44.79114,20.2711506,2,,0,,,0
2076,2076,Miljakovac 3,,44.7380862,20.4633802,2,,0,,,0
2077,2077,Stari Vinogradi,,44.7638965,20.5162387,2,,0,,,0
2078,2078,Stari Vinogradi,,44.7641803,20.5161285,2,,0,,,0
2079,2079,Buljubašine Vode,,44.760076,20.5183292,2,,0,,,0
2080,2080,Buljubašine Vode,,44.7598267,20.5185408,2,,0,,,0
2081,2081,Veliki Mokri Lug,,44.75697,20.51923,2,,0,,,0
2082,2082,Veliki Mokri Lug,,44.7572577,20.519246,2,,0,,,0
2083,2083,Medaković 3,,44.7722343,20.5083707,1,,0,,,0
2084,2084,Vikend Naselje 1,,44.7368214,20.185067,2,,0,,,0
2085,2085,Vikend Naselje 1,,44.736823,20.1845491,2,,0,,,0
2086,2086,Nikole Marakovića,,44.745797,20.4619061,2,,0,,,0
2087,2087,Nikole Marakovića,,44.7462289,20.4618299,2,,0,,,0
2088,2088,Zmaj Ognjenog Vuka,,44.793005,20.1556597,2,,0,,,0
2089,2089,Zmaj Ognjenog Vuka,,44.7932174,20.1550464,2,,0,,,0
2090,2090,Ritopek,,44.7386387,20.6578218,2,,0,,,0
2091,2091,Ritopek /Centar/,,44.7386171,20.6546371,2,,0,,,0
2092,2092,Neoplanta,,44.7686572,20.3580443,2,,0,,,0
2093,2093,Neoplanta,,44.7681128,20.3572127,2,,0,,,0
2094,2094,Brodotehnika,,44.7617947,20.3503012,2,,0,,,0
2095,2095,Brodotehnika,,44.7624936,20.3508683,2,,0,,,0
2096,2096,Peđe Milosavljevića,,44.818276,20.3771716,1,,0,,,0
2097,2097,Ljubinke Bobić,,44.8154046,20.3746773,1,,0,,,0
2098,2098,Ljubinke Bobić,,44.8145206,20.3735413,1,,0,,,0
2099,2099,Marka Ristića,,44.8125872,20.3713392,1,,0,,,0
2100,2100,Marka Ristića,,44.81213,20.3704382,1,,0,,,0
2101,2101,Milana Vujaklije,,44.810124,20.3674914,1,,0,,,0
2102,2102,Bežanijska Kosa,,44.80785,20.363076,1,,0,,,0
2103,2103,Boleč /Pumpa/,,44.7417959,20.6067249,2,,0,,,0
2104,2104,Slovačko Groblje,,44.722821,20.2366373,2,,0,,,0
2105,2105,Slovačko Groblje,,44.7232598,20.2371913,2,,0,,,0
2106,2106,Žs Pančevački Most,,44.8191295,20.4879719,1,,0,,,0
2107,2107,Magelanova,,44.80845,20.3645451,1,,0,,,0
2108,2108,Mike Alasa,,44.7535583,20.3428531,2,,0,,,0
2109,2109,Mostogradnja,,44.7470757,20.3386534,2,,0,,,0
2110,2110,Dorćol /Dunavska/,,44.8281581,20.4613449,1,,0,,,0
2111,2111,Solunska,,44.827134,20.4560263,1,,0,,,0
2112,2112,Despota Đurđa,,44.8260421,20.461637,1,,0,,,0
2113,2113,Žs Pančevački Most,,44.819302,20.488905,1,,0,,,0
2114,2114,Šest Kaplara,,44.8151025,20.4333152,1,,0,,,0
2115,2115,Kosmajska,,44.7486058,20.416637,2,,0,,,0
2116,2116,Kosmajska,,44.7485549,20.417579,2,,0,,,0
2117,2117,Vrtić Plava Ptica,,44.7451077,20.4126937,2,,0,,,0
2118,2118,Vrtić Plava Ptica,,44.7459452,20.4132865,2,,0,,,0
2119,2119,Vinogradski Venac,,44.7428486,20.412254,2,,0,,,0
2120,2120,Vinogradski Venac,,44.743403,20.4121716,2,,0,,,0
2121,2121,Cerski Venac,,44.7419127,20.4143835,2,,0,,,0
2122,2122,Cerski Venac,,44.7420846,20.4134589,2,,0,,,0
2123,2123,Cerak Vinogradi,,44.7438548,20.4189999,2,,0,,,0
2124,2124,Kneževac,,44.7343712,20.4323273,2,,0,,,0
2125,2125,Ane Ahmatove,,44.749754,20.427989,2,,0,,,0
2126,2126,Ane Ahmatove,,44.7502969,20.4276537,2,,0,,,0
2127,2127,Široka Greda,,44.9572267,20.3877524,2,,0,,,0
2128,2128,Farmaceutski Fakultet,,44.747467,20.4960703,2,,0,,,0
2129,2129,Banovo Brdo,,44.7687215,20.41385,1,,0,,,0
2130,2130,Save Jovanovića,,44.7426581,20.4831606,2,,0,,,0
2131,2131,Žs Pančevački Most,,44.819217,20.489489,1,,0,,,0
2132,2132,Prilivak,,44.7510263,20.2565318,2,,0,,,0
2133,2133,Prilivak,,44.7507616,20.2565173,2,,0,,,0
2134,2134,Boleč /Pumpa/,,44.7429433,20.605835,2,,0,,,0
2135,2135,Naselje Vinogradi,,44.7226679,20.3997758,2,,0,,,0
2136,2136,Naselje Vinogradi,,44.7227227,20.3993364,2,,0,,,0
2137,2137,Bore Stankovića,,44.7488899,20.3564679,2,,0,,,0
2138,2138,Bore Stankovića,,44.7491008,20.3562331,2,,0,,,0
2139,2139,Druga Nova,,44.731863,20.1983382,2,,0,,,0
2140,2140,Druga Nova,,44.7315161,20.1989516,2,,0,,,0
2141,2141,Naselje Tovilište,,44.9353368,20.4355814,2,,0,,,0
2142,2142,Mz Jakovo,,44.753959,20.2596959,2,,0,,,0
2143,2143,Josipa Telarevića,,44.7190466,20.4521546,2,,0,,,0
2144,2144,Josipa Telarevića,,44.7187139,20.4515894,2,,0,,,0
2145,2145,Brđanska,,44.7165444,20.4572173,2,,0,,,0
2146,2146,Brđanska,,44.7166484,20.4572379,2,,0,,,0
2147,2147,Vojvođanski Salaši,,44.8836438,20.5043535,2,,0,,,0
2148,2148,Vojvođanski Salaši,,44.8836445,20.5036224,2,,0,,,0
2149,2149,Ovča /Izlaz/,,44.8864018,20.5229649,2,,0,,,0
2150,2150,Ovča /Izlaz/,,44.8864896,20.5231708,2,,0,,,0
2151,2151,Braće Srnić,,44.7716544,20.5117548,2,,0,,,0
2152,2152,Braće Srnić,,44.7716554,20.5121579,2,,0,,,0
2153,2153,Mostogradnja,,44.7465783,20.33825,2,,0,,,0
2154,2154,Kosovopoljska,,44.884886,20.462628,2,,0,,,0
2155,2155,Kosovopoljska,,44.8823436,20.4640952,2,,0,,,0
2156,2156,Pretok,,44.8923321,20.4576502,2,,0,,,0
2157,2157,Pretok,,44.8911819,20.4581923,2,,0,,,0
2158,2158,Nadvožnjak,,44.7384261,20.3260546,2,,0,,,0
2159,2159,Nadvožnjak,,44.7386173,20.3266589,2,,0,,,0
2160,2160,Dom Zdravlja,,44.7599163,20.4189323,2,,0,,,0
2162,2162,Srpska Kruna,,44.8076911,20.552688,2,,0,,,0
2163,2163,Srpska Kruna,,44.80783,20.5522519,2,,0,,,0
2164,2164,Mz Ostružnica,,44.7315578,20.3147788,2,,0,,,0
2165,2165,Mz Ostružnica,,44.7314843,20.3150169,2,,0,,,0
2166,2166,Crkva,,44.7283209,20.3212513,2,,0,,,0
2167,2167,Crkva,,44.7281249,20.3215435,2,,0,,,0
2168,2168,Ljube Rankovića,,44.7254088,20.3241634,2,,0,,,0
2169,2169,Ljube Rankovića,,44.7251195,20.324146,2,,0,,,0
2170,2170,Oš Vasa Čarapić,,44.7048411,20.5111739,2,,0,,,0
2171,2171,Oš Vasa Čarapić,,44.7050575,20.5112699,2,,0,,,0
2172,2172,Beli Potok /Centar/,,44.70557,20.51902,2,,0,,,0
2173,2173,Braće Jakovljević,,44.7080542,20.5215197,2,,0,,,0
2174,2174,Braće Jakovljević,,44.7081838,20.521582,2,,0,,,0
2175,2175,Glumačka,,44.7089396,20.5241527,2,,0,,,0
2176,2176,Glumačka,,44.7090052,20.5239874,2,,0,,,0
2177,2177,Beli Potok,,44.7092764,20.5268507,2,,0,,,0
2178,2178,Beli Potok,,44.7094181,20.5271459,2,,0,,,0
2179,2179,Bitoljska,,44.7486872,20.4143167,2,,0,,,0
2180,2180,Bitoljska,,44.7486688,20.4136261,2,,0,,,0
2181,2181,Mesara,,44.7763859,20.2334759,2,,0,,,0
2182,2182,Mesara,,44.7761896,20.2343212,2,,0,,,0
2183,2183,Agro-Koka,,44.885213,20.515867,2,,0,,,0
2184,2184,Gradine,,44.7197512,20.3793572,2,,0,,,0
2185,2185,Gradine,,44.7201278,20.3790938,2,,0,,,0
2186,2186,Trafostanica,,44.7186512,20.3812345,2,,0,,,0
2187,2187,Trafostanica,,44.7187341,20.3806427,2,,0,,,0
2188,2188,Stari Železnik,,44.7207656,20.3828035,2,,0,,,0
2189,2189,Pekara,,44.8071496,20.5620214,2,,0,,,0
2190,2190,Pekara,,44.8072976,20.5618121,2,,0,,,0
2191,2191,Bolja,,44.8875725,20.5389007,2,,0,,,0
2192,2192,Nicu Rada,,44.8884027,20.5421861,2,,0,,,0
2193,2193,Magelanova,,44.8087683,20.3654771,1,,0,,,0
2194,2194,Školsko Dobro,,44.8648853,20.3204039,2,,0,,,0
2195,2195,Franje Krča,,44.872674,20.3247721,2,,0,,,0
2196,2196,Trafostanica,,44.8603968,20.3256111,2,,0,,,0
2197,2197,Volgina,,44.8087756,20.5031062,1,,0,,,0
2198,2198,Volgina,,44.8087929,20.5027241,1,,0,,,0
2199,2199,Kumodraž,,44.7448598,20.5184903,2,,0,,,0
2200,2200,Kumodraž,,44.7449406,20.5184392,2,,0,,,0
2201,2201,Strahinje Petrovića,,44.8576494,20.3296686,2,,0,,,0
2202,2202,Depo Sava,,44.8067726,20.4109665,1,,0,,,0
2203,2203,Železnička Stanica Zemun Polje,,44.8574364,20.3340528,2,,0,,,0
2204,2204,Garaža Novi Beograd,,44.8077694,20.4057161,1,,0,,,0
2205,2205,Rasinska,,44.7202496,20.4263323,2,,0,,,0
2206,2206,Jedanaeste Krajiške Divizije,,44.7226559,20.4294782,2,,0,,,0
2207,2207,Železnik /Tariš/,,44.7130163,20.3788593,2,,0,,,0
2208,2208,Sremčica /Ulaz/,,44.6880445,20.3819827,2,,0,,,0
2209,2209,Sremčica /Naselje Gorica/,,44.6892562,20.3846774,2,,0,,,0
2210,2210,Mali Zbeg,,44.8951736,20.4557541,2,,0,,,0
2211,2211,Mali Zbeg,,44.8937622,20.4564513,2,,0,,,0
2212,2212,Groblje Zbeg,,44.898048,20.45379,2,,0,,,0
2213,2213,Groblje Zbeg,,44.899049,20.4529093,2,,0,,,0
2214,2214,Pkb Kovilovo,,44.908106,20.4213302,2,,0,,,0
2215,2215,Zemun Polje,,44.875568,20.319237,2,,0,,,0
2216,2216,Cerak Vinogradi,,44.7439214,20.4188319,2,,0,,,0
2217,2217,Oš Vladimir Rolović,,44.7227436,20.4322954,2,,0,,,0
2218,2218,Reni Bunar,,44.7786005,20.3815621,1,,0,,,0
2219,2219,Reni Bunar,,44.7788487,20.3823062,1,,0,,,0
2220,2220,Taložnik,,44.7752718,20.3743759,1,,0,,,0
2221,2221,Taložnik,,44.7752674,20.3746205,1,,0,,,0
2222,2222,Vodovod,,44.7733995,20.369427,2,,0,,,0
2223,2223,Vodovod,,44.773469,20.369967,2,,0,,,0
2224,2224,Svete Milutinovića,,44.7262275,20.3698041,2,,0,,,0
2225,2225,Svete Milutinovića,,44.7268249,20.3695343,2,,0,,,0
2226,2226,Zlatanovići,,44.7340155,20.3765727,2,,0,,,0
2227,2227,Zlatanovići,,44.7339135,20.3767002,2,,0,,,0
2228,2228,Radnih Akcija,,44.7294579,20.3746419,2,,0,,,0
2229,2229,Radnih Akcija,,44.73086,20.37475,2,,0,,,0
2230,2230,Milorada Ćirića,,44.7259005,20.3706142,2,,0,,,0
2231,2231,Petrovića Brdo,,44.7220624,20.32622,2,,0,,,0
2232,2232,Stovarište,,44.7385113,20.2513604,2,,0,,,0
2233,2233,Stovarište,,44.7389573,20.2520393,2,,0,,,0
2234,2234,Kneza Višeslava,,44.782745,20.420633,1,,0,,,0
2235,2235,Naselje Golf,,44.7764507,20.4220813,1,,0,,,0
2236,2236,Petra Martinovića,,44.7739965,20.4189944,1,,0,,,0
2237,2237,Žarkovačka,,44.770931,20.4209622,1,,0,,,0
2238,2238,Kraljice Katarine,,44.7691303,20.4203647,1,,0,,,0
2239,2239,Vrtić Košuta,,44.757559,20.4233282,2,,0,,,0
2240,2240,Mile Jevtović,,44.7616056,20.4190654,2,,0,,,0
2241,2241,Popova Bara,,44.879679,20.467943,2,,0,,,0
2242,2242,Popova Bara,,44.8804611,20.4685753,2,,0,,,0
2243,2243,Orlovača /Ulaz/,,44.7072815,20.4123462,2,,0,,,0
2244,2244,Orlovača /Izlaz/,,44.707072,20.4122051,2,,0,,,0
2245,2245,Glumčevo Brdo 1,,44.6175769,20.4611807,3,,0,,,0
2246,2246,Glumčevo Brdo 1,,44.6178227,20.4611005,3,,0,,,0
2247,2247,Veliki Mokri Lug (Izlaz),,44.7683804,20.5133731,2,,0,,,0
2248,2248,Kamenička,,44.8118456,20.4561832,1,,0,,,0
2249,2249,Kalemarska,,44.7424141,20.4996782,2,,0,,,0
2250,2250,Mz Kumodraž,,44.7386692,20.506329,2,,0,,,0
2251,2251,Dobanovačka Petlja,,44.8483148,20.2088458,2,,0,,,0
2252,2252,Dobanovačka Petlja,,44.8487454,20.2084368,2,,0,,,0
2253,2253,Naselje Okrajak,,44.8528004,20.2060756,2,,0,,,0
2254,2254,Naselje Okrajak,,44.8520378,20.2064235,2,,0,,,0
2255,2255,Veliki Mokri Lug (Ulaz),,44.767473,20.5136654,2,,0,,,0
2256,2256,Zvezdara,,44.7927722,20.5036688,1,,0,,,0
2257,2257,Orlovača Groblje,,44.7095598,20.4125636,2,,0,,,0
2258,2258,Put Za Brest,,44.6212982,20.5188678,2,,0,,,0
2259,2259,Put Za Brest,,44.621462,20.519341,2,,0,,,0
2260,2260,Put Za Lukiće,,44.6176277,20.5071894,2,,0,,,0
2261,2261,Put Za Lukiće,,44.6169466,20.50641,2,,0,,,0
2262,2262,Birotehnička Škola,,44.8390663,20.4032619,1,,0,,,0
2263,2263,Dobanovci /Groblje/,,44.8373046,20.2362928,2,,0,,,0
2264,2264,Partizanska,,44.8311564,20.2319956,2,,0,,,0
2265,2265,Zemunska,,44.829757,20.2282797,2,,0,,,0
2266,2266,Bosutska,,44.7966462,20.5219814,1,,0,,,0
2267,2267,Bosutska,,44.7972196,20.5219499,1,,0,,,0
2268,2268,Petrovića Brdo,,44.7221318,20.3262777,2,,0,,,0
2269,2269,Okretnica /Česma/,,44.717804,20.332389,2,,0,,,0
2270,2270,Oš Karađorđe,,44.72626,20.320204,2,,0,,,0
2271,2271,Oš Karađorđe,,44.7267121,20.3199518,2,,0,,,0
2272,2272,Stare Barake,,44.7223148,20.3210335,2,,0,,,0
2273,2273,Stare Barake,,44.7224221,20.3211521,2,,0,,,0
2274,2274,Novo Naselje /Ulaz/,,44.718237,20.320487,2,,0,,,0
2275,2275,Novo Naselje /Ulaz/,,44.718243,20.320641,2,,0,,,0
2276,2276,Ostružnica /Novo Naselje/,,44.7137034,20.3198736,2,,0,,,0
2277,2277,Put Za Novi Sad,,44.87264,20.33543,2,,0,,,0
2278,2278,Put Za Novi Sad,,44.87299,20.33659,2,,0,,,0
2279,2279,Železnička Stanica Novi Beograd,,44.807,20.41881,1,,0,,,0
2280,2280,Železnička Stanica Novi Beograd,,44.80719,20.41849,1,,0,,,0
2281,2281,Milana Vujaklije,,44.8105622,20.3684064,1,,0,,,0
2282,2282,Nikole Doksata,,44.8002603,20.5204697,1,,0,,,0
2283,2283,Milana Rakića,,44.7914604,20.5179704,1,,0,,,0
2284,2284,Milana Rakića,,44.7910906,20.518429,1,,0,,,0
2285,2285,Batajnica /Železnička Stanica/,,44.9000305,20.2710116,2,,0,,,0
2287,2287,Batajnica /Železnička Stanica/,,44.9001993,20.2709252,2,,0,,,0
2290,2290,Biodekor,,44.806693,20.3535116,1,,0,,,0
2291,2291,Milana Rakića,,44.7921539,20.5175455,1,,0,,,0
2292,2292,Savska,,44.7267101,20.3115898,2,,0,,,0
2293,2293,Lole Ribara,,44.7229469,20.311253,2,,0,,,0
2294,2294,Ostružnica /Karaula/,,44.7181761,20.3097353,2,,0,,,0
2295,2295,Lole Ribara,,44.7233171,20.311529,2,,0,,,0
2296,2296,Savska,,44.7266177,20.3117608,2,,0,,,0
2298,2298,Kružni Put,,44.71922,20.41382,2,,0,,,0
2299,2299,Kružni Put,,44.71881,20.41552,2,,0,,,0
2300,2300,Dugo Polje,,44.7158869,20.4936527,2,,0,,,0
2301,2301,Grmovac /25.Nova/,,44.855392,20.14718,2,,0,,,0
2302,2302,Jovana Brankovića,,44.91114,20.28239,2,,0,,,0
2304,2304,Glavni Poštanski Centar,,44.8482122,20.3731807,1,,0,,,0
2305,2305,Ratarski Put,,44.8482393,20.3701002,2,,0,,,0
2306,2306,Ugrinovački Put,,44.8500879,20.3674095,2,,0,,,0
2307,2307,Dobanovački Put,,44.8475398,20.37072,2,,0,,,0
2308,2308,Juga Grizelja,,44.8516963,20.3650518,2,,0,,,0
2309,2309,Ljiljane Krstić,,44.8537403,20.3607275,2,,0,,,0
2310,2310,Glavni Poštanski Centar,,44.8481342,20.3736105,1,,0,,,0
2311,2311,Školsko Dobro,,44.865516,20.320034,2,,0,,,0
2312,2312,Stanka Tišme,,44.90643,20.28891,2,,0,,,0
2313,2313,Busije 1,,44.8879619,20.221636,2,,0,,,0
2314,2314,Gučevska,,44.7925876,20.4579841,1,,0,,,0
2315,2315,Braće Smiljanić,,44.90349,20.29221,2,,0,,,0
2316,2316,Bosanske Krajine,,44.90017,20.29437,2,,0,,,0
2317,2317,Altina,,44.8531469,20.3548922,2,,0,,,0
2318,2318,Viktora Starčića,,44.8499946,20.3521215,2,,0,,,0
2319,2319,Pavla Vujisića,,44.8467737,20.3566097,2,,0,,,0
2320,2320,Zire Adamović,,44.8466478,20.3618506,2,,0,,,0
2321,2321,Abebe Bikila,,44.8470838,20.3661217,2,,0,,,0
2322,2322,Omladinskih Brigada 1,,44.8144216,20.4056979,1,,0,,,0
2323,2323,Bulevar Umetnosti,,44.8125462,20.4097882,1,,0,,,0
2324,2324,Bulevar Umetnosti,,44.8137086,20.4081323,1,,0,,,0
2325,2325,Gandijeva,,44.8044013,20.3875998,1,,0,,,0
2326,2326,Mz Reva /Mali Raj/,,44.8678296,20.5953964,2,,0,,,0
2327,2327,Reva /Duboka Bara/,,44.8700638,20.6152106,2,,0,,,0
2328,2328,Trafostanica,,44.860802,20.3251961,2,,0,,,0
2329,2329,Strahinje Petrović,,44.8580995,20.3291805,2,,0,,,0
2330,2330,Institut Za Kukuruz,,44.8715804,20.3292355,2,,0,,,0
2331,2331,Lipovački Put,,44.6300517,20.4666609,2,,0,,,0
2332,2332,Lipovački Put,,44.6300135,20.4665274,2,,0,,,0
2333,2333,Timočki Put,,44.634844,20.4619366,2,,0,,,0
2334,2334,Timočki Put,,44.6343044,20.462419,2,,0,,,0
2335,2335,Drenjak,,44.6382863,20.4572709,2,,0,,,0
2336,2336,Drenjak,,44.6385864,20.4568214,2,,0,,,0
2337,2337,Lipovački Put 4 Deo,,44.6443817,20.4534241,2,,0,,,0
2338,2338,Lipovački Put 4 Deo,,44.6440593,20.4534285,2,,0,,,0
2339,2339,Stara Lipovica,,44.6444529,20.445954,2,,0,,,0
2340,2340,Stara Lipovica,,44.6444557,20.4450748,2,,0,,,0
2341,2341,Prvomajska,,44.6470025,20.4364398,2,,0,,,0
2342,2342,Prvomajska,,44.6468403,20.436669,2,,0,,,0
2343,2343,Trebež,,44.6487073,20.4310638,2,,0,,,0
2344,2344,Ilije Stojadinovića,,44.7503229,20.4322618,2,,0,,,0
2345,2345,Busije /Ulaz/,,44.8927629,20.2324709,2,,0,,,0
2346,2346,Prote Jeftimija Ivanovića,,44.8960518,20.2303702,2,,0,,,0
2347,2347,Prote Jeftimija Ivanovića,,44.8952998,20.2307326,2,,0,,,0
2348,2348,Savke Subotić,,44.8986303,20.2300488,2,,0,,,0
2349,2349,Stanka Opačića Ćanice,,44.9013098,20.2308959,2,,0,,,0
2350,2350,Nikole Begovića,,44.8994872,20.2256809,2,,0,,,0
2351,2351,Busije /Crkva/,,44.8980607,20.2215388,2,,0,,,0
2352,2352,Dr Živka Bertića,,44.8996427,20.2199379,2,,0,,,0
2353,2353,Zeleni Venac,,44.8138191,20.4575073,1,,0,,,0
2354,2354,Progar /Centar/,,44.7149226,20.1607143,2,,0,,,0
2355,2355,12. Avgusta,,44.7164845,20.1558243,2,,0,,,0
2356,2356,12.Avgusta,,44.7157402,20.1564755,2,,0,,,0
2357,2357,Progar,,44.7182268,20.1493196,2,,0,,,0
2358,2358,Oštreljska,,44.8108132,20.5094542,1,,0,,,0
2359,2359,Oštreljska,,44.8106503,20.5100739,1,,0,,,0
2360,2360,Mirijevo,,44.79393,20.53119,2,,0,,,0
2361,2361,Zelengora,,44.6895821,20.3115385,2,,0,,,0
2362,2362,Solunska,,44.826275,20.4558099,1,,0,,,0
2363,2363,Toplana 1,,44.7499021,20.4546161,2,,0,,,0
2364,2364,Toplana,,44.7497465,20.4547914,2,,0,,,0
2367,2367,Zelengora,,44.6898133,20.3120401,2,,0,,,0
2368,2368,Miljakovačka Šuma,,44.7411306,20.4630547,2,,0,,,0
2369,2369,Miljakovačka Šuma,,44.7411287,20.4631598,2,,0,,,0
2370,2370,Železnički Nadvožnjak,,44.7354961,20.3213418,2,,0,,,0
2371,2371,Železnički Nadvožnjak,,44.7356179,20.3217519,2,,0,,,0
2372,2372,Ostružnica /Centar/,,44.7289829,20.3182774,2,,0,,,0
2373,2373,Ostružnica /Centar/,,44.729498,20.3178507,2,,0,,,0
2374,2374,Dom Zdravlja,,44.7596918,20.418565,2,,0,,,0
2375,2375,Milovana Čelebića,,44.7544986,20.4245291,2,,0,,,0
2376,2376,Milovana Čelebića,,44.7549349,20.4241146,2,,0,,,0
2377,2377,Jovana Mikića,,44.7577087,20.4214985,2,,0,,,0
2378,2378,Jovana Mikića,,44.7581068,20.4209095,2,,0,,,0
2379,2379,Miloja Zakića,,44.7550217,20.4298746,2,,0,,,0
2380,2380,Dimitrija Avramovića,,44.7586983,20.4270152,2,,0,,,0
2381,2381,Krajiške Brigade,,44.76442,20.41654,2,,0,,,0
2382,2382,Blok 26,,44.8160036,20.4264938,1,,0,,,0
2383,2383,Blok 26,,44.8158319,20.426668,1,,0,,,0
2384,2384,Matice Srpske /Pijaca/,,44.7906782,20.5371195,2,,0,,,0
2385,2385,Matice Srpske /Pijaca/,,44.7903775,20.537344,2,,0,,,0
2386,2386,Lazara Trifunovića,,44.7947868,20.5337376,2,,0,,,0
2387,2387,Lazara Trifunovića,,44.7941656,20.5340226,2,,0,,,0
2388,2388,Novo Bežanijsko Groblje,,44.8221158,20.3648369,1,,0,,,0
2389,2389,Novo Bežanijsko Groblje,,44.8219823,20.3638773,1,,0,,,0
2390,2390,Kvantaška Pijaca,,44.8256241,20.3617359,1,,0,,,0
2391,2391,Put Za Zuce,,44.6805435,20.5330076,2,,0,,,0
2392,2392,Put Za Zuce,,44.6807129,20.5330471,2,,0,,,0
2393,2393,Kapija Šumadije,,44.67015,20.5418588,2,,0,,,0
2394,2394,Kapija Šumadije,,44.6704957,20.542103,2,,0,,,0
2395,2395,Šuplja Stena,,44.6659598,20.5420868,2,,0,,,0
2396,2396,Šuplja Stena,,44.6660992,20.5422167,2,,0,,,0
2397,2397,Raskrsnica-Vrčin,,44.6626868,20.5434227,2,,0,,,0
2398,2398,Raskrsnica-Vrčin,,44.663009,20.5433896,2,,0,,,0
2399,2399,Rasadnik,,44.6551583,20.5501357,2,,0,,,0
2400,2400,Rasadnik,,44.6562211,20.5498558,2,,0,,,0
2401,2401,Prnjavor /Ulaz/,,44.6476422,20.5537145,2,,0,,,0
2402,2402,Prnjavor /Ulaz/,,44.6469476,20.5538283,2,,0,,,0
2403,2403,Prnjavor /Škola/,,44.632329,20.5542172,2,,0,,,0
2404,2404,Prnjavor /Škola/,,44.6323153,20.5543485,2,,0,,,0
2405,2405,Trešnja,,44.6206602,20.5552233,2,,0,,,0
2406,2406,Trešnja,,44.6209058,20.5555011,2,,0,,,0
2407,2407,Avalski Cvet,,44.615028,20.5563247,2,,0,,,0
2408,2408,Avalski Cvet,,44.6149211,20.5565797,2,,0,,,0
2409,2409,Trešnja /Škola/,,44.608357,20.556019,2,,0,,,0
2410,2410,Kumodraž (Stepina Kuća),,44.742366,20.516116,2,,0,,,0
2411,2411,Trebež,,44.6490387,20.4305189,2,,0,,,0
2412,2412,Ripanj /Centar/,,44.637985,20.520528,2,,0,,,0
2413,2413,Ripanj /Centar/,,44.6379795,20.5204229,2,,0,,,0
2414,2414,Servisi,,44.810835,20.493204,1,,0,,,0
2415,2415,Teodora Drajzera,,44.780626,20.447621,1,,0,,,0
2416,2416,Pivljanina Baje ,,44.7656518,20.4544233,1,,0,,,0
2417,2417,Milana Blagojevića Španca,,44.7579558,20.4525202,1,,0,,,0
2418,2418,Pere Velimirovića,,44.757849,20.459918,1,,0,,,0
2419,2419,Milana Blagojevića Španca,,44.7581157,20.451639,1,,0,,,0
2420,2420,Pivljanina Baje,,44.7659147,20.4545235,1,,0,,,0
2421,2421,"Oš ""1300 Kaplara""",,44.80564,20.49758,1,,0,,,0
2422,2422,Teodora Drajzera,,44.7807456,20.446774,1,,0,,,0
2423,2423,Mirijevsko Brdo,,44.8073709,20.5244175,1,,0,,,0
2424,2424,Koste Brankovića ,,44.851271,20.337126,2,,0,,,0
2425,2425,Srednji Prnjavor,,44.6412041,20.5518202,2,,0,,,0
2426,2426,Srednji Prnjavor,,44.6411472,20.5520025,2,,0,,,0
2427,2427,Novosadski Put,,44.8371977,20.3631178,2,,0,,,0
2428,2428,Novosadski Put,,44.8370086,20.3636769,2,,0,,,0
2429,2429,Železnička Tehnička Stanica,,44.8387146,20.3565753,2,,0,,,0
2430,2430,Železnička Tehnička Stanica,,44.8381974,20.3577197,2,,0,,,0
2431,2431,Milana Nedeljkovića,,44.8459618,20.345061,2,,0,,,0
2432,2432,Milana Nedeljkovića,,44.8462925,20.3443972,2,,0,,,0
2433,2433,Koste Cukića,,44.8479708,20.3421128,2,,0,,,0
2434,2434,Koste Cukića,,44.8473142,20.3428911,2,,0,,,0
2435,2435,Koste Alkovića,,44.8499782,20.3391607,2,,0,,,0
2436,2436,Koste Alkovića,,44.8492232,20.3400886,2,,0,,,0
2437,2437,Omladinskih Brigada,,44.8055265,20.3993866,1,,0,,,0
2438,2438,Iv Beogradska Gimnazija,,44.779113,20.455403,1,,0,,,0
2439,2439,Teodora Drajzera 2,,44.780459,20.450035,1,,0,,,0
2440,2440,Teodora Drajzera 2,,44.780309,20.450742,1,,0,,,0
2441,2441,Iv Beogradska Gimnazija,,44.779501,20.454485,1,,0,,,0
2442,2442,Pilota Mihaila Petrovića,,44.7439185,20.4239471,2,,0,,,0
2443,2443,Labudovo Brdo,,44.7308648,20.4210775,2,,0,,,0
2444,2444,Labudovo Brdo,,44.7309682,20.4212528,2,,0,,,0
2445,2445,Kralja Uroša,,44.89693,20.28996,2,,0,,,0
2446,2446,Stevana Dubajića,,44.896,20.28723,2,,0,,,0
2447,2447,Braće Radišić,,44.898,20.28299,2,,0,,,0
2448,2448,Mirijevo,,44.79354,20.53115,2,,0,,,0
2449,2449,Topčiderski Park,,44.781152,20.438634,1,,0,,,0
2451,2451,Železnička Stanica Topčider,,44.7767956,20.4370281,1,,0,,,0
2453,2453,Topčiderska Okretnica,,44.7741994,20.4375672,1,,0,,,0
2454,2454,Topčiderska Okretnica,,44.774371,20.4376863,1,,0,,,0
2455,2455,Patrijarha Pavla,,44.766155,20.443659,1,,0,,,0
2456,2456,Patrijarha Pavla,,44.766303,20.443676,1,,0,,,0
2459,2459,Košutnjak,,44.7564563,20.4456675,1,,0,,,0
2460,2460,Košutnjak,,44.757214,20.44665,1,,0,,,0
2461,2461,Miška Kranjca,,44.7421843,20.4408534,2,,0,,,0
2462,2462,Miška Kranjca,,44.7422391,20.4410476,2,,0,,,0
2463,2463,Slavka Rodića,,44.738999,20.43421,2,,0,,,0
2464,2464,Trešnja /Koviona/,,44.59693,20.5676,3,,0,,,0
2465,2465,Partizanska 2,,44.8608703,20.2049156,2,,0,,,0
2466,2466,Partizanska 2,,44.8600053,20.2047859,2,,0,,,0
2467,2467,Dr Đorđa Šulce,,44.8951888,20.242495,2,,0,,,0
2468,2468,Dr Đorđa Šulce,,44.8955628,20.243905,2,,0,,,0
2469,2469,Savska Terasa,,44.7434407,20.3920147,2,,0,,,0
2470,2470,Savska Terasa,,44.744282,20.3933655,2,,0,,,0
2471,2471,"Oš ""1300 Kaplara""",,44.80576,20.49688,1,,0,,,0
2472,2472,Naučno-Tehnološki Park ,,44.80376,20.5021,1,,0,,,0
2473,2473,Fk Banja,,44.8199621,20.5314613,2,,0,,,0
2474,2474,Fk Banja,,44.8198395,20.5305736,2,,0,,,0
2475,2475,Kortesarova,,44.852342,20.3485917,2,,0,,,0
2477,2477,Konstantina Kavafija,,44.8531774,20.347106,2,,0,,,0
2479,2479,Dijega Rivere,,44.8567758,20.3414406,2,,0,,,0
2480,2480,Altina 1,,44.8593147,20.3394484,2,,0,,,0
2481,2481,Preka Kaldrma,,44.8058374,20.1012349,2,,0,,,0
2482,2482,Vrtić Bajka,,44.76536,20.41942,1,,0,,,0
2483,2483,Mile Jevtović,,44.76218,20.41886,2,,0,,,0
2484,2484,Bulevar Peka Dapčevića,,44.7692881,20.4844711,1,,0,,,0
2485,2485,Bulevar Peka Dapčevića,,44.7691384,20.4847273,1,,0,,,0
2486,2486,Miljakovac 1 – Okretnica,,44.7481582,20.4480318,2,,0,,,0
2487,2487,Grmovac,,44.8556344,20.1614326,2,,0,,,0
2488,2488,Grmovac,,44.8555518,20.1620328,2,,0,,,0
2489,2489,Grmovac /Crkva/,,44.855599,20.1554852,2,,0,,,0
2490,2490,Grmovac /Crkva/,,44.8555163,20.1571608,2,,0,,,0
2491,2491,Stanka Koraća,,44.900345,20.2349892,2,,0,,,0
2492,2492,Trandafila Duke,,44.9023055,20.2338607,2,,0,,,0
2493,2493,Sekule Vitkovića,,44.9011041,20.223232,2,,0,,,0
2494,2494,Dr Laze Kostića,,44.9004413,20.2273332,2,,0,,,0
2495,2495,Stefana Kneževica,,44.8986247,20.2285746,2,,0,,,0
2496,2496,Palata Pravde,,44.805034,20.4538302,1,,0,,,0
2497,2497,Aerodrom Batajnica,,44.9272291,20.2449406,2,,0,,,0
2498,2498,Durmitorska,,44.8022766,20.4515637,1,,0,,,0
2499,2499,Go Vračar,,44.8008163,20.4734783,1,,0,,,0
2500,2500,Go Vračar,,44.8013652,20.4727755,1,,0,,,0
2501,2501,Novo Naselje,,44.8139607,20.5410537,2,,0,,,0
2502,2502,Oficirska Kolonija,,44.914766,20.258341,2,,0,,,0
2503,2503,Oficirska Kolonija,,44.913983,20.259827,2,,0,,,0
2504,2504,Moma Stanojlović,,44.9191778,20.252429,2,,0,,,0
2505,2505,Moma Stanojlović,,44.9187139,20.2525802,2,,0,,,0
2506,2506,Novogradska,,44.845555,20.4019132,1,,0,,,0
2507,2507,Novogradska,,44.8456253,20.4014819,1,,0,,,0
2508,2508,Dobanovački Put,,44.8474694,20.3690328,2,,0,,,0
2509,2509,Abebe Bikila,,44.8470954,20.3654074,2,,0,,,0
2510,2510,Zire Adamović,,44.8466979,20.3614852,2,,0,,,0
2511,2511,Pavla Vujisića,,44.8472832,20.3561268,2,,0,,,0
2512,2512,Viktora Starčića,,44.8504015,20.3516595,2,,0,,,0
2513,2513,Altina,,44.8531238,20.3554937,2,,0,,,0
2514,2514,Ljiljane Krstić,,44.8534399,20.3622451,2,,0,,,0
2515,2515,Juga Grizelja,,44.8519203,20.3645476,2,,0,,,0
2516,2516,Ugrinovački Put,,44.8497347,20.3677544,2,,0,,,0
2517,2517,Ratarski Put,,44.8484835,20.369576,2,,0,,,0
2518,2518,Ralja /Trafo/,,44.56991,20.57087,3,,0,,,0
2519,2519,Pivljanina Baje 1,,44.7605033,20.4529483,1,,0,,,0
2520,2520,Bačka,,44.8506364,20.3793235,1,,0,,,0
2521,2521,Bačka,,44.8497403,20.3801554,1,,0,,,0
2522,2522,Banatska,,44.8583879,20.377857,1,,0,,,0
2523,2523,Banatska,,44.8575436,20.3778924,1,,0,,,0
2524,2524,Novo Bežanijsko Groblje,,44.8222899,20.3666269,1,,0,,,0
2525,2525,Novo Bežanijsko Groblje,,44.8222337,20.3653706,1,,0,,,0
2526,2526,Koste Brankovića,,44.8519649,20.3362389,2,,0,,,0
2527,2527,Karagačka,,44.6812093,20.5368462,2,,0,,,0
2528,2528,Karagačka,,44.680748,20.5355672,2,,0,,,0
2529,2529,Bečmen /Zabran/,,44.7884501,20.1770376,2,,0,,,0
2530,2530,Bečmen /Zabran/,,44.7880535,20.1782412,2,,0,,,0
2531,2531,Šumsko Gazdinstvo,,44.7910833,20.1649393,2,,0,,,0
2532,2532,Šumsko Gazdinstvo,,44.7906873,20.1661653,2,,0,,,0
2533,2533,Bare,,44.7278663,20.6225039,2,,0,,,0
2534,2534,Bare,,44.7285404,20.6217674,2,,0,,,0
2535,2535,Trešnja (Škola),,44.6088485,20.5561443,2,,0,,,0
2536,2536,Trešnja /Koviona/,,44.59651,20.56788,3,,0,,,0
2537,2537,Episkopa Nikolaja,,44.8513265,20.3499984,2,,0,,,0
2538,2538,Sc Mladost,,44.8027972,20.3402807,2,,0,,,0
2539,2539,Sc Mladost,,44.803155,20.3420287,2,,0,,,0
2540,2540,Železnička Tehnička Stanica 1,,44.8402389,20.3528307,2,,0,,,0
2541,2541,Železnička Tehnička Stanica 1,,44.8401508,20.3527622,2,,0,,,0
2542,2542,Batutova,,44.7951766,20.499466,1,,0,,,0
2543,2543,Borisa Kidriča,,44.642915,20.7040792,2,,0,,,0
2544,2544,Borisa Kidriča,,44.6433143,20.7042386,2,,0,,,0
2545,2545,Kasarna /Glavni Ulaz/,,44.68407,20.54491,2,,0,,,0
2546,2546,Kasarna /Glavni Ulaz/,,44.6839,20.5444,2,,0,,,0
2547,2547,13.Oktobra,,44.58424,20.56481,3,,0,,,0
2548,2548,13.Oktobra,,44.58596,20.56545,3,,0,,,0
2549,2549,Livnica,,44.5772,20.56533,3,,0,,,0
2550,2550,Livnica,,44.57723,20.56581,3,,0,,,0
2551,2551,Ralja /Centar/,,44.57383,20.5581,3,,0,,,0
2552,2552,Ralja /Centar/,,44.57394,20.55845,3,,0,,,0
2553,2553,Naselje Radiofar,,44.83444,20.30982,2,,0,,,0
2554,2554,Vitezova Karađorđeve Zvezde,,44.79485,20.52763,1,,0,,,0
2555,2555,Vitezova Karađorđeve Zvezde,,44.79488,20.5274,1,,0,,,0
2556,2556,Ladne Vode,,44.800088,20.527407,1,,0,,,0
2557,2557,Ladne Vode,,44.79876,20.52777,1,,0,,,0
2558,2558,Šejkina,,44.80253,20.52577,1,,0,,,0
2559,2559,Šejkina,,44.8017,20.52651,1,,0,,,0
2560,2560,Pere Ćetkovića,,44.80577,20.52477,1,,0,,,0
2561,2561,Pere Ćetkovića,,44.80473,20.52482,1,,0,,,0
2562,2562,Marijane Gregoran,,44.8113162,20.5230957,1,,0,,,0
2563,2563,Marijane Gregoran,,44.80976,20.52393,1,,0,,,0
2564,2564,Pogon Karaburma,,44.81422,20.52058,1,,0,,,0
2565,2565,Pogon Karaburma,,44.81341,20.52076,1,,0,,,0
2566,2566,Ralja /Trafo/,,44.57016,20.5701,3,,0,,,0
2567,2567,Ralja /Drumine/,,44.5605173,20.5810204,3,,0,,,0
2568,2568,Ralja /Drumine/,,44.5619,20.57955,3,,0,,,0
2569,2569,Pivljanina Baje 1,,44.761543,20.453326,1,,0,,,0
2571,2571,Široki Put,,44.9089916,20.286145,2,,0,,,0
2572,2572,Resnik (Edvarda Griga),,44.71172,20.46377,2,,0,,,0
2573,2573,Oš Desanka Maksimović,,44.7824016,20.5170016,1,,0,,,0
2574,2574,Oš Desanka Maksimović,,44.7823066,20.516695,1,,0,,,0
2575,2575,Prvomajska,,44.7814166,20.5199883,1,,0,,,0
2576,2576,Mage Magazinović,,44.779115,20.519327,2,,0,,,0
2577,2577,Bosanska,,44.7761566,20.5196783,2,,0,,,0
2578,2578,Dvadesetog Oktobra ,,44.774585,20.5266383,2,,0,,,0
2579,2579,Mali Mokri Lug (Crkva),,44.7740933,20.5311233,2,,0,,,0
2580,2580,Narodnog Fronta,,44.777255,20.529125,2,,0,,,0
2581,2581,Pijaca ,,44.7810583,20.5230516,1,,0,,,0
2582,2582,Topčiderski Park,,44.782286,20.440846,1,,0,,,0
2583,2583,Topčiderski Park,,44.781724,20.441495,1,,0,,,0
2584,2584,Novosadska,,44.917825,20.2787916,2,,0,,,0
2585,2585,Katice Opačić,,44.9144566,20.2803316,2,,0,,,0
2586,2586,Sibnička Nova 4. Deo,,44.869646,20.606957,2,,0,,,0
2587,2587,Sibnička Nova 4. Deo,,44.869776,20.605512,2,,0,,,0
2588,2588,Kolarska,,44.774205,20.522895,2,,0,,,0
2589,2589,Oš Vojvoda Putnik,,44.66832,20.4942,2,,0,,,0
2590,2590,Hajdučki Potok,,44.661,20.4813,2,,0,,,0
2591,2591,Hajdučki Potok,,44.6609,20.4805,2,,0,,,0
2592,2592,Železnik /Tariš/,,44.7131201,20.3789118,2,,0,,,0
2593,2593,Đure Jakšića,,44.71471,20.37363,2,,0,,,0
2594,2594,Đure Jakšića,,44.7144,20.3689,2,,0,,,0
2595,2595,Pukovnika Petra Mišića,,44.7585603,20.4951169,2,,0,,,0
2601,2601,Mz Velika Moštanica,,44.6696766,20.3528233,2,,0,,,0
2602,2602,Mz Velika Moštanica,,44.669915,20.3528,2,,0,,,0
2603,2603,Milije Marinkovića,,44.6613916,20.357555,2,,0,,,0
2604,2604,Milije Marinkovića,,44.6608233,20.3584583,2,,0,,,0
2605,2605,Gradine,,44.7138633,20.376135,2,,0,,,0
2606,2606,Gradine,,44.71465,20.3737317,2,,0,,,0
2607,2607,Brđanska,,44.6222408,20.4685264,3,,0,,,0
2608,2608,Nenadovac 1,,44.6247616,20.46514,3,,0,,,0
2609,2609,Nenadovac 2,,44.622895,20.4543266,3,,0,,,0
2610,2610,Nenadovac 3,,44.6216066,20.4506383,3,,0,,,0
2611,2611,Nenadovac 4,,44.6207,20.443895,3,,0,,,0
2612,2612,Nenadovac 5,,44.6157033,20.437945,3,,0,,,0
2613,2613,Nenadovac,,44.6096683,20.43046,3,,0,,,0
2614,2614,Taborište,,44.60091,20.43061,3,,0,,,0
2615,2615,Glumčevo Brdo 2,,44.60481,20.43399,3,,0,,,0
2616,2616,Glumčevo Brdo 3,,44.6085866,20.44019,3,,0,,,0
2617,2617,Stevančevića Kraj,,44.6115383,20.4445283,3,,0,,,0
2618,2618,Glumčevo Brdo /Škola/,,44.61392,20.4471633,3,,0,,,0
2619,2619,Žikice Jovanovića,,44.7144733,20.3681533,2,,0,,,0
2621,2621,Nenadovac 6,,44.61215,20.43391,3,,0,,,0
2622,2622,Vojvode Vlahovića,,44.7622411,20.5017863,2,,0,,,0
2623,2623,Vojvode Vlahovića 1,,44.7614715,20.5059361,2,,0,,,0
2624,2624,Vojvode Vlahovića 1,,44.7612927,20.5061997,2,,0,,,0
2625,2625,Vojvode Vlahovića,,44.7623219,20.501754,2,,0,,,0
2626,2626,Vojvode Vlahovića 2,,44.761349,20.50722,2,,0,,,0
2627,2627,Mali Zabran,,44.72711,20.46164,1,,0,,,0
2628,2628,Boljevci (Ribolovački Klub),,44.7263426,20.202538,2,,0,,,0
2629,2629,Boljevci (Ribolovački Klub),,44.7258094,20.2038424,2,,0,,,0
2630,2630,Belarička,,44.892795,20.300981,2,,0,,,0
2631,2631,Mirijevsko Brdo,,44.8083247,20.5243749,1,,0,,,0
2632,2632,Sremčica /Ulaz/,,44.68793,20.38087,2,,0,,,0
2633,2633,Velika Moštanica /Groblje/,,44.6846,20.35989,2,,0,,,0
2634,2634,Velika Moštanica /Groblje/,,44.68458,20.36002,2,,0,,,0
2635,2635,Velika Moštanica /Ulaz/,,44.68336,20.35399,2,,0,,,0
2636,2636,Velika Moštanica /Izlaz/,,44.68361,20.35475,2,,0,,,0
2637,2637,Dobrivoja Jovanovića 2.Deo,,44.68062,20.35254,2,,0,,,0
2638,2638,Dobrivoja Jovanovića 2.Deo,,44.68126,20.35291,2,,0,,,0
2639,2639,Dobrivoja Jovanovića /Igralište/,,44.67773,20.35194,2,,0,,,0
2640,2640,Dobrivoja Jovanovića /Igralište/,,44.67847,20.352027,2,,0,,,0
2641,2641,Mate Miloševića,,44.76044,20.50818,2,,0,,,0
2642,2642,Miljana Miljanića,,44.76209,20.50822,2,,0,,,0
2643,2643,Vojvode Vlahovića 2,,44.7611691,20.5072808,2,,0,,,0
2644,2644,Milovana Vidakovića,,44.7619869,20.5070086,2,,0,,,0
2645,2645,Pećani (Groblje),,44.690063,20.336487,2,,0,,,0
2646,2646,Pećani (Groblje),,44.690319,20.335928,2,,0,,,0
2647,2647,Žikina (Prilaz),,44.767151,20.533598,2,,0,,,0
2648,2648,Žikina (Prilaz),,44.767932,20.534135,2,,0,,,0
2649,2649,Vinogradska (Ulaz),,44.801728,20.360739,1,,0,,,0
2650,2650,Vinogradska (Ulaz),,44.802021,20.361571,1,,0,,,0
2651,2651,Mz Ledine,,44.798011,20.349692,1,,0,,,0
2652,2652,Mz Ledine,,44.798152,20.350853,1,,0,,,0
2653,2653,Vodeničarska,,44.796199,20.339914,2,,0,,,0
2654,2654,Vodeničarska,,44.795996,20.339044,2,,0,,,0
2655,2655,Go Surčin (Ulaz),,44.794925,20.331293,2,,0,,,0
2656,2656,Go Surčin (Ulaz),,44.794814,20.330814,2,,0,,,0
2657,2657,Mz Novi Surčin,,44.794576,20.324002,2,,0,,,0
2658,2658,Mz Novi Surčin,,44.79449,20.324749,2,,0,,,0
2659,2659,Kanal Galovica,,44.794617,20.315797,2,,0,,,0
2660,2660,Kanal Galovica,,44.794603,20.316568,2,,0,,,0
2661,2661,Silosi,,44.793214,20.305699,2,,0,,,0
2662,2662,Silosi,,44.793243,20.306028,2,,0,,,0
2663,2663,Surčin Naselje (Ulaz),,44.791385,20.293661,2,,0,,,0
2664,2664,Surčin Naselje (Ulaz),,44.791479,20.294266,2,,0,,,0
2665,2665,Ritska Ulica,,44.789562,20.286407,2,,0,,,0
2666,2666,Ritska Ulica,,44.789633,20.287588,2,,0,,,0
2667,2667,Dragomira Momčilovića,,44.789176,20.278176,2,,0,,,0
2668,2668,Dragomira Momčilovića,,44.789231,20.279651,2,,0,,,0
2669,2669,Surčin (Centar),,44.790222,20.27049,2,,0,,,0
2670,2670,Bolnica Dragiša Mišović,,44.776752,20.459308,1,,0,,,0
2671,2671,Bulevar Crvene Armije,,44.8049,20.4133,1,,0,,,0
2672,2672,Bulevar Crvene Armije,,44.8050454,20.4128644,1,,0,,,0
2673,2673,Oš Jovan Sterija Popović,,44.807164,20.376752,1,,0,,,0
2674,2674,Topola,,44.739918,20.504305,2,,0,,,0
2675,2675,Crkva Sv. Atanasija Velikog,,44.84513,20.34875,2,,0,,,0
2676,2676,Crkva Sv. Atanasija Velikog,,44.844503,20.348897,2,,0,,,0
2677,2677,Ikarbus,,44.83282,20.34679,2,,0,,,0
2678,2678,Ikarbus,,44.83443,20.34711,2,,0,,,0
2679,2679,Ševino Polje,,44.83424,20.32835,2,,0,,,0
2680,2680,Ševino Polje,,44.83429,20.32883,2,,0,,,0
2681,2681,Miloša Crnjanskog,,44.8316,20.32259,2,,0,,,0
2682,2682,Miloša Crnjanskog,,44.83165,20.32173,2,,0,,,0
2683,2683,Koste Abraševića,,44.83146,20.31778,2,,0,,,0
2684,2684,Koste Abraševića,,44.83148,20.31699,2,,0,,,0
2685,2685,Nemanjina,,44.8314,20.31404,2,,0,,,0
2686,2686,Nemanjina,,44.83139,20.31324,2,,0,,,0
2688,2688,Kosovke Devojke,,44.83125,20.30849,2,,0,,,0
2689,2689,Dom Garde,,44.776364,20.439644,1,,0,,,0
2690,2690,Svetog Save,,44.83112,20.30379,2,,0,,,0
2691,2691,Radiofar,,44.83091,20.29898,2,,0,,,0
2692,2692,Oš Vladimir Rolović,,44.72285,20.43046,2,,0,,,0
2693,2693,Rasinska,,44.720335,20.426322,2,,0,,,0
2694,2694,Taborište,,44.60144,20.43118,3,,0,,,0
2695,2695,Miodraga Vukovića,,44.59689,20.42958,3,,0,,,0
2696,2696,Miodraga Vukovića,,44.59724,20.42988,3,,0,,,0
2697,2697,Srednji Kraj,,44.59114,20.42873,3,,0,,,0
2698,2698,Srednji Kraj,,44.59192,20.42882,3,,0,,,0
2699,2699,Karaula,,44.58842,20.428454,3,,0,,,0
2700,2700,Vinogradska (Surčin Naselje),,44.79278,20.29899,2,,0,,,0
2701,2701,Vinogradska (Surčin Naselje),,44.79277,20.29955,2,,0,,,0
2702,2702,Ljiljane Krstić,,44.85407,20.36155,2,,0,,,0
2703,2703,Epš Milutin Milanković,,44.723738,20.433474,2,,0,,,0
2704,2704,Ugrinovački Put 12. Deo,,44.85587,20.35887,2,,0,,,0
2705,2705,Ugrinovački Put 12. Deo,,44.8556227,20.3590928,2,,0,,,0
2706,2706,Ugrinovački Put 26. Deo,,44.8579664,20.355774,2,,0,,,0
2707,2707,Ugrinovački Put 26. Deo,,44.8577938,20.3558772,2,,0,,,0
2708,2708,Naselje Mala Pruga,,44.8606375,20.3518598,2,,0,,,0
2709,2709,Naselje Mala Pruga,,44.860089,20.3524311,2,,0,,,0
2710,2710,Umka - Centar,,44.6786668,20.3033278,2,,0,,,0
2711,2711,Rucka 1,,44.67572,20.30242,2,,0,,,0
2712,2712,Rucka 1,,44.67557,20.30249,2,,0,,,0
2713,2713,Rucka 2,,44.67155,20.30475,2,,0,,,0
2714,2714,Rucka 2,,44.67144,20.30471,2,,0,,,0
2715,2715,Rucka 3,,44.664497,20.305995,2,,0,,,0
2716,2716,Rucka 3,,44.66428,20.30604,2,,0,,,0
2717,2717,Rucka 4,,44.66111,20.30978,2,,0,,,0
2718,2718,Rucka 4,,44.66097,20.30986,2,,0,,,0
2719,2719,Rucka /Okretnica/,,44.65589,20.31514,2,,0,,,0
2720,2720,Naselje Stepa Stepanović,,44.75355,20.49656,2,,0,,,0
2721,2721,Generala Štefanika,,44.75472,20.49683,2,,0,,,0
2722,2722,Generala Štefanika,,44.75496,20.49684,2,,0,,,0
2723,2723,Generala Vladimira Kondića,,44.75601,20.49533,2,,0,,,0
2724,2724,Generala Vladimira Kondića,,44.7558,20.4958,2,,0,,,0
2725,2725,Pukovnika Petra Mišića,,44.7576,20.49312,2,,0,,,0
2726,2726,Pukovnika Petra Mišića,,44.75721,20.4936,2,,0,,,0
2727,2727,Timočke Divizije,,44.75906,20.49092,2,,0,,,0
2728,2728,Timočke Divizije,,44.75889,20.49118,2,,0,,,0
2729,2729,Oš Danilo Kiš,,44.76007,20.48779,2,,0,,,0
2730,2730,Oš Danilo Kiš,,44.75999,20.48798,2,,0,,,0
2733,2733,Đurđevdan,,44.67497,20.53903,2,,0,,,0
2734,2734,Đurđevdan,,44.67428,20.53955,2,,0,,,0
2735,2735,Jat Tehnika,,44.813742,20.291377,2,,0,,,0
2736,2736,Jat Tehnika,,44.81191,20.293549,2,,0,,,0
2737,2737,Privredna Zona (Izlaz),,44.86208,20.35244,2,,0,,,0
2738,2738,Polimark,,44.86392,20.34916,2,,0,,,0
2739,2739,Polimark,,44.8632,20.35036,2,,0,,,0
2740,2740,Zemun Park,,44.86658,20.34422,2,,0,,,0
2741,2741,Zemun Park,,44.86607,20.34503,2,,0,,,0
2742,2742,Put Za Novi Sad,,44.87234,20.33648,2,,0,,,0
2743,2743,Miljakovački Izvori,,44.736016,20.464226,2,,0,,,0
2744,2744,Miljakovac 3,,44.73821,20.46345,2,,0,,,0
2745,2745,Miljakovačke Staze 1,,44.73376,20.46703,2,,0,,,0
2746,2746,Miljakovačke Staze 1,,44.7340684,20.466883,2,,0,,,0
2747,2747,Miljakovačke Staze 2,,44.73183,20.47,2,,0,,,0
2748,2748,Miljakovačke Staze 2,,44.7321064,20.4697795,2,,0,,,0
2749,2749,Miljakovačke Staze,,44.7298,20.4715,2,,0,,,0
2750,2750,Grmovac (20.Nova),,44.85545,20.15316,2,,0,,,0
2751,2751,Grmovac (20.Nova),,44.85552,20.15252,2,,0,,,0
2752,2752,Trg Oslobođenja,,44.7864,20.47042,1,,0,,,0
2753,2753,Naučno-Tehnološki Park ,,44.80401,20.50135,1,,0,,,0
2754,2754,Kineski Tržni Centar,,44.83781,20.35957,2,,0,,,0
2755,2755,Put Za Ćumurane,,44.626629,20.469654,2,,0,,,0
2756,2756,Put Za Ćumurane,,44.627594,20.469094,2,,0,,,0
2757,2757,Novo Naselje (Rušanj),,44.682788,20.427578,2,,0,,,0
2758,2758,Naselje Belvil,,44.80445,20.40888,1,,0,,,0
2759,2759,Naselje Belvil,,44.80391,20.41146,1,,0,,,0
2760,2760,Mz Ripanj,,44.63944,20.52075,2,,0,,,0
2761,2761,Mz Ripanj,,44.63977,20.52083,2,,0,,,0
2762,2762,Put Za Kalajdžiće,,44.64266,20.52213,2,,0,,,0
2763,2763,Put Za Kalajdžiće,,44.64225,20.52196,2,,0,,,0
2764,2764,Put Za Nestoroviće,,44.64579,20.52229,2,,0,,,0
2765,2765,Put Za Nestoroviće,,44.64552,20.52225,2,,0,,,0
2766,2766,Ripanj /Groblje/,,44.64789,20.52195,2,,0,,,0
2767,2767,Vinogradska (Plandište),,44.800009,20.356105,1,,0,,,0
2768,2768,Vinogradska (Plandište),,44.800221,20.356874,1,,0,,,0
2769,2769,Zdravstvena St. Leštane I Vinča,,44.745063,20.596344,2,,0,,,0
2770,2770,Prvomajska,,44.74275,20.59372,2,,0,,,0
2771,2771,Prvomajska,,44.74317,20.59438,2,,0,,,0
2772,2772,Privredna Zona,,44.74052,20.59078,2,,0,,,0
2773,2773,Privredna Zona,,44.74084,20.59137,2,,0,,,0
2774,2774,Miodraga Pešića,,44.7383,20.58742,2,,0,,,0
2775,2775,Miodraga Pešića,,44.739112,20.58858,2,,0,,,0
2776,2776,Oš Nikola Tesla,,44.7344,20.58102,2,,0,,,0
2777,2777,Oš Nikola Tesla,,44.73424,20.58082,2,,0,,,0
2778,2778,Ravan (Ulaz),,44.72657,20.57633,2,,0,,,0
2779,2779,Ravan (Ulaz),,44.72696,20.57632,2,,0,,,0
2780,2780,Kremenje,,44.72272,20.57838,1,,0,,,0
2781,2781,Kremenje,,44.72287,20.5784,2,,0,,,0
2782,2782,Leštane (Ravan),,44.71954,20.58308,2,,0,,,0
2783,2783,Leštane (Centar),,44.730667,20.575763,2,,0,,,0
2784,2784,Pošta,,44.709445,20.518473,2,,0,,,0
2785,2785,Pošta,,44.7094156,20.5181833,2,,0,,,0
2786,2786,Saveza Boraca,,44.711345,20.518571,2,,0,,,0
2787,2787,Saveza Boraca,,44.711363,20.518584,2,,0,,,0
2788,2788,Beli Potok /Naselje Kolonija/,,44.71264,20.518346,2,,0,,,0
2789,2789,Beli Potok /Naselje Kolonija/,,44.712532,20.518271,2,,0,,,0
2791,2791,Miljakovačko Brdo,,44.7282873,20.469082,2,,0,,,0
2792,2792,Sunčani Breg 1,,44.728072,20.457697,2,,0,,,0
2793,2793,Sunčani Breg 2,,44.7258936,20.4547156,2,,0,,,0
2794,2794,Trešnja /Okretnica/,,44.60857,20.55575,2,,0,,,0
2795,2795,Put Za Aluge,,44.63573,20.52677,2,,0,,,0
2796,2796,Put Za Aluge,,44.63621,20.52579,2,,0,,,0
2797,2797,Pavićevac 1,,44.63608,20.53575,2,,0,,,0
2798,2798,Pavićevac 1,,44.63616,20.536,2,,0,,,0
2799,2799,Pavićevac 3,,44.63319,20.54724,2,,0,,,0
2800,2800,Pavićevac 3,,44.63347,20.54633,2,,0,,,0
2801,2801,Prnjavor /Škola/,,44.63292,20.55352,2,,0,,,0
2802,2802,Dinarska,,44.7877176,20.4635736,1,,0,,,0
2803,2803,Borča 3,,44.8744979,20.4484573,2,,0,,,0
2804,2804,Borča 3,,44.8747688,20.4486604,2,,0,,,0
2805,2805,Mihajla Bandura,,44.855841,20.33055,2,,0,,,0
2806,2806,Mihajla Bandura,,44.855276,20.331085,2,,0,,,0
2807,2807,Zaklopača (Ćelije),,44.679437,20.648356,2,,0,,,0
2808,2808,Zaklopača (Ćelije),,44.678322,20.64878,2,,0,,,0
2809,2809,Janković Kraj,,44.6793267,20.62816,2,,0,,,0
2810,2810,Janković Kraj,,44.6788267,20.62841,2,,0,,,0
2811,2811,17. Januara,,44.6786,20.6219,2,,0,,,0
2812,2812,17. Januara,,44.6787846,20.6227458,2,,0,,,0
2813,2813,Vrčin Gornji Kraj,,44.6756937,20.6155407,2,,0,,,0
2814,2814,Vrčin Gornji Kraj,,44.675651,20.6154516,2,,0,,,0
2815,2815,Vrčin - Nadvožnjak,,44.67477,20.6021,2,,0,,,0
2816,2816,Vrčin - Nadvožnjak,,44.674857,20.602421,2,,0,,,0
2817,2817,Vrčin (Ivo Lola Ribar),,44.673327,20.5990377,2,,0,,,0
2818,2818,Vrčin ,,44.6716,20.595995,2,,0,,,0
2819,2819,Vrčin ,,44.671789,20.595403,2,,0,,,0
2820,2820,Pavićevac 2,,44.63416,20.54058,2,,0,,,0
2821,2821,Pavićevac 2,,44.63428,20.540655,2,,0,,,0
2822,2822,Velika Moštanica - M,,44.633561,20.38172,2,,0,,,0
2823,2823,Lipovica (Policija),,44.637061,20.411874,2,,0,,,0
2824,2824,Lipovica (Policija),,44.637333,20.412162,2,,0,,,0
2830,2830,Put Za Crvenku,,44.85935,20.42828,2,,0,,,0
2831,2831,Put Za Crvenku,,44.85913,20.42932,2,,0,,,0
2832,2832,Milošev Kladenac,,44.767434,20.518043,2,,0,,,0
2833,2833,Milošev Kladenac,,44.76795,20.51787,2,,0,,,0
2834,2834,Ristin Potok,,44.765642,20.520751,2,,0,,,0
2835,2835,Ristin Potok,,44.766016,20.519927,2,,0,,,0
2836,2836,Vinjage,,44.762296,20.525788,2,,0,,,0
2837,2837,Vinjage,,44.763004,20.525086,2,,0,,,0
2838,2838,Pogon Kosmaj,,44.772187,20.517296,2,,0,,,0
2839,2839,Pupin Telekom,,44.869565,20.339889,2,,0,,,0
2840,2840,Pupin Telekom,,44.868978,20.340493,2,,0,,,0
2841,2841,Metro,,44.865038,20.349153,2,,0,,,0
2842,2842,Metro,,44.865168,20.349822,2,,0,,,0
2843,2843,Naselje Belvil,,44.807118,20.407312,1,,0,,,0
2844,2844,Novi Beograd (Blok 20),,44.81152,20.43871,1,,0,,,0
2845,2845,Novi Beograd (Blok 20),,44.81105,20.43784,1,,0,,,0
2846,2846,Novi Beograd (Blok 20),,44.81156,20.4385,1,,0,,,0
2847,2847,Novi Beograd (Ušće),,44.81484,20.44078,1,,0,,,0
2848,2848,Šest Kaplara,,44.815344,20.43501,1,,0,,,0
2849,2849,Ortopedski Zavod,,44.793199,20.449568,1,,0,,,0
2850,2850,Jakovo (Ulaz),,44.764341,20.24859,2,,0,,,0
2851,2851,Jakovo (Ulaz),,44.76469,20.248324,2,,0,,,0
2852,2852,Veliko Selo (Ulaz),,44.80664,20.58582,2,,0,,,0
2853,2853,Veliko Selo (Ulaz),,44.8069,20.58542,2,,0,,,0
2854,2854,Cvećara,,44.86029,20.43636,2,,0,,,0
2855,2855,Cvećara,,44.86123,20.43786,2,,0,,,0
2856,2856,Beli Potok (Igralište),,44.711887,20.519756,2,,0,,,0
2857,2857,Saveza Boraca 1,,44.7076,20.51818,2,,0,,,0
2858,2858,Saveza Boraca 1,,44.7074,20.51849,2,,0,,,0
2859,2859,Mihaila Petrovića,,44.881528,20.472932,2,,0,,,0
2860,2860,Tc Zmaj,,44.83639,20.36841,2,,0,,,0
2861,2861,Dedinje (Ortopedska Bolnica),,44.766167,20.463475,1,,0,,,0
2862,2862,Dedinje (Ortopedska Bolnica),,44.766304,20.46403,1,,0,,,0
2863,2863,Miloja Đaka,,44.764545,20.459308,1,,0,,,0
2864,2864,Miloja Đaka,,44.76397,20.459755,1,,0,,,0
2865,2865,Omladinska,,44.767971,20.458644,1,,0,,,0
2866,2866,Omladinska,,44.767827,20.4585,1,,0,,,0
2867,2867,Batajnica,,44.915419,20.271099,2,,0,,,0
2868,2868,Mihaila Petrovića,,44.881781,20.471572,2,,0,,,0
2869,2869,Pumpa,,44.849881,20.188022,2,,0,,,0
2870,2870,Pumpa,,44.849726,20.188299,2,,0,,,0
2871,2871,Živača,,44.734949,20.173204,2,,0,,,0
2872,2872,Živača,,44.735153,20.173668,2,,0,,,0
2873,2873,Zemljoradnička (Ulaz),,44.739146,20.511241,2,,0,,,0
2874,2874,Zemljoradnička (Ulaz),,44.739415,20.510471,2,,0,,,0
2875,2875,Đurđevdanska,,44.736667,20.513,2,,0,,,0
2876,2876,Đurđevdanska,,44.736614,20.513177,2,,0,,,0
2877,2877,Zabran Torlak,,44.733828,20.510913,2,,0,,,0
2878,2878,Zabran Torlak,,44.734401,20.511344,2,,0,,,0
2879,2879,Zemljoradnička (Put Za Deponiju),,44.730997,20.51125,2,,0,,,0
2880,2880,Zemljoradnička (Put Za Deponiju),,44.730891,20.511435,2,,0,,,0
2881,2881,Rakovica Selo (Gornji Kraj),,44.72492,20.507742,2,,0,,,0
2882,2882,Rakovica Selo (Gornji Kraj),,44.72533,20.507681,2,,0,,,0
2883,2883,Zemljoradnička (Izlaz) - Osečinska,,44.722818,20.50509,2,,0,,,0
2884,2884,Zemljoradnička (Izlaz) - Osečinska,,44.722719,20.505268,2,,0,,,0
2887,2887,Podavalska (Izlaz),,44.715203,20.459313,2,,0,,,0
2888,2888,Mz Resnik,,44.713765,20.452319,2,,0,,,0
2889,2889,Mz Resnik,,44.713436,20.453093,2,,0,,,0
2890,2890,Petrovdanska,,44.73812,20.513497,2,,0,,,0
2891,2891,Petrovdanska,,44.738128,20.51335,2,,0,,,0
2892,2892,Pošta,,44.702109,20.504629,2,,0,,,0
2893,2893,Pošta,,44.702238,20.503937,2,,0,,,0
2894,2894,1. Nova,,44.70234,20.500682,2,,0,,,0
2895,2895,1. Nova,,44.702364,20.500137,2,,0,,,0
2896,2896,6. Nova,,44.703081,20.496323,2,,0,,,0
2897,2897,6. Nova,,44.703437,20.495391,2,,0,,,0
2898,2898,Institut Jaroslav Černi,,44.704456,20.49083,2,,0,,,0
2899,2899,Boleč (Groblje),,44.734021,20.605037,2,,0,,,0
2900,2900,Boleč (Groblje),,44.73487,20.60584,2,,0,,,0
2901,2901,Bečmen (Izlaz),,44.784393,20.190928,2,,0,,,0
2902,2902,Bečmen (Izlaz),,44.784054,20.191413,2,,0,,,0
2903,2903,Železnička Stanica Beograd Centar,,44.792742,20.454328,1,,0,,,0
2904,2904,Gučevska,,44.792488,20.457577,1,,0,,,0
2905,2905,Epš Milutin Milanković,,44.724226,20.433516,2,,0,,,0
2906,2906,Toplice Milana,,44.780778,20.498372,1,,0,,,0
2907,2907,Vladimira Tomanovića,,44.7814685,20.5001813,1,,0,,,0
2908,2908,Ikea,,44.709829,20.561238,2,,0,,,0
2913,2913,Astrid Lindgren,,44.703593,20.572505,2,,0,,,0
2914,2914,Tranšped,,44.703874,20.576232,2,,0,,,0
2915,2915,Fk Moštanica,,44.66815,20.35537,2,,0,,,0
2916,2916,Fk Moštanica,,44.66809,20.35523,2,,0,,,0
2917,2917,Živojina Tabakovića (Srednji Kraj),,44.67073,20.35736,2,,0,,,0
2918,2918,Živojina Tabakovića (Srednji Kraj),,44.6708,20.35731,2,,0,,,0
2919,2919,Edvarada Griga (Ulaz),,44.712916,20.459221,2,,0,,,0
2920,2920,Edvarada Griga (Ulaz),,44.713265,20.458864,2,,0,,,0
2921,2921,Zdravstvena Stanica Resnik,,44.711722,20.461883,2,,0,,,0
2922,2922,Zdravstvena Stanica Resnik,,44.712105,20.461109,2,,0,,,0
2923,2923,Resnik (Edvarda Griga),,44.711427,20.464335,2,,0,,,0
2924,2924,Velika Moštanica (Živojina Tabakovića),,44.674322,20.360608,2,,0,,,0
2925,2925,Moštanička (Novo Naselje),,44.68772,20.37422,2,,0,,,0
2926,2926,Moštanička (Novo Naselje),,44.68735,20.37487,2,,0,,,0
2927,2927,"Dom Zdravlja ""Labudovo Brdo""",,44.725536,20.428784,2,,0,,,0
2928,2928,"Dom Zdravlja ""Labudovo Brdo""",,44.725738,20.428406,2,,0,,,0
2933,2933,Timočki Put (Ulaz),,44.652426,20.51063,2,,0,,,0
2934,2934,Timočki Put (Ulaz),,44.6529083,20.5112038,2,,0,,,0
2935,2935,Timočki Put 2. Deo,,44.648408,20.505379,2,,0,,,0
2936,2936,Timočki Put 2. Deo,,44.648431,20.505502,2,,0,,,0
2937,2937,Livadice,,44.647826,20.49752,2,,0,,,0
2938,2938,Livadice,,44.647789,20.497911,1,,0,,,0
2939,2939,Timočki Put (Srednji Deo),,44.64806,20.494179,2,,0,,,0
2940,2940,Timočki Put (Srednji Deo),,44.648125,20.494653,2,,0,,,0
2941,2941,Oklisak - Trafo,,44.644441,20.493178,2,,0,,,0
2942,2942,Oklisak - Trafo,,44.644772,20.493407,2,,0,,,0
2943,2943,Palanački Potok,,44.641385,20.487645,2,,0,,,0
2944,2944,Palanački Potok,,44.641321,20.487701,2,,0,,,0
2945,2945,Put Za Zabran,,44.637726,20.472339,2,,0,,,0
2946,2946,Put Za Zabran,,44.637521,20.471813,2,,0,,,0
2947,2947,Timočki Put (Izlaz),,44.636276,20.465711,2,,0,,,0
2948,2948,Timočki Put (Izlaz),,44.6364132,20.4680321,2,,0,,,0
2949,2949,Olge Jojić,,44.74388,20.47561,2,,0,,,0
2950,2950,Milke Bosnić,,44.74156,20.47535,2,,0,,,0
2951,2951,Ane Dobeš,,44.73906,20.47684,2,,0,,,0
2952,2952,Milutina Miljkovića,,44.73636,20.47757,2,,0,,,0
2953,2953,Donje Naselje,,44.73485,20.47552,2,,0,,,0
2954,2954,Vukosave Oljače,,44.73122,20.47919,2,,0,,,0
2955,2955,Olimpska,,44.72963,20.48213,2,,0,,,0
2956,2956,Torlački Vis,,44.73381,20.49472,2,,0,,,0
2957,2957,Brdska,,44.73603,20.49849,2,,0,,,0
2958,2958,Šljivarska,,44.73878,20.50208,2,,0,,,0
2959,2959,Sunčani Breg 2,,44.72572,20.45468,2,,0,,,0
2960,2960,Sunčani Breg 1,,44.72786,20.45791,2,,0,,,0
2961,2961,Mali Zabran,,44.72779,20.46267,2,,0,,,0
2962,2962,Miljakovačko Brdo,,44.72825,20.46946,2,,0,,,0
2963,2963,Šljivarska,,44.73885,20.50202,2,,0,,,0
2964,2964,Brdska,,44.73627,20.49889,2,,0,,,0
2965,2965,Torlački Vis,,44.73429,20.49492,2,,0,,,0
2966,2966,Olimpska,,44.72999,20.48161,2,,0,,,0
2967,2967,Vukosave Oljače,,44.73156,20.47896,2,,0,,,0
2968,2968,Donje Naselje,,44.73464,20.47581,2,,0,,,0
2969,2969,Milutina Miljkovića,,44.73659,20.47786,2,,0,,,0
2970,2970,Ane Dobeš,,44.73892,20.47708,2,,0,,,0
2971,2971,Milke Bosnić,,44.74189,20.47573,2,,0,,,0
2972,2972,Olge Jojić,,44.74438,20.47581,2,,0,,,0
2973,2973,Timočki Put,,44.634999,20.461777,2,,0,,,0
2974,2974,Timočki Put,,44.635085,20.4621012,2,,0,,,0
2975,2975,29.Novembra,,44.645793,20.427152,2,,0,,,0
2976,2976,29.Novembra,,44.646023,20.427415,2,,0,,,0
2977,2977,Trebež (Okretnica),,44.642378,20.428787,2,,0,,,0
2978,2978,Timočki Put 1.Deo,,44.649929,20.507339,2,,0,,,0
2979,2979,Timočki Put 1.Deo,,44.649913,20.507388,2,,0,,,0
2980,2980,Pružni Prelaz,,44.701279,20.451567,2,,0,,,0
2981,2981,Pružni Prelaz,,44.701154,20.451754,2,,0,,,0
2982,2982,Resnik (Železnička Pruga),,44.70013,20.45247,2,,0,,,0
2983,2983,Resnik (Železnička Pruga),,44.70041,20.45228,2,,0,,,0
2984,2984,Delovi - Prilaz,,44.69951,20.4577,2,,0,,,0
2985,2985,Delovi - Prilaz,,44.69954,20.45743,2,,0,,,0
2986,2986,Nova 3 - Prilaz,,44.69912,20.45915,2,,0,,,0
2987,2987,Nova 3 - Prilaz,,44.69927,20.45909,2,,0,,,0
2988,2988,Resnik (Patin Majdan),,44.69693,20.46109,2,,0,,,0
2989,2989,Letićeva,,44.722818,20.43698,2,,0,,,0
2990,2990,Letićeva,,44.723001,20.437211,2,,0,,,0
2991,2991,Proleterska (Ulaz),,44.721,20.434873,2,,0,,,0
2992,2992,Proleterska (Ulaz),,44.720888,20.43494,2,,0,,,0
2993,2993,Železnički Most,,44.718722,20.432567,2,,0,,,0
2994,2994,Železnički Most,,44.718991,20.433131,2,,0,,,0
2995,2995,Fudbalsko Igralište,,44.716098,20.429923,2,,0,,,0
2996,2996,Fudbalsko Igralište,,44.715925,20.429799,2,,0,,,0
2997,2997,Staro Kijevo,,44.715122,20.428129,2,,0,,,0
2998,2998,Novobeogradskih Graditelja,,44.796986,20.34458,2,,0,,,0
2999,2999,Novobeogradskih Graditelja,,44.796988,20.345423,2,,0,,,0
3000,3000,Stepenice,,44.71771,20.432009,2,,0,,,0
3001,3001,Stepenice,,44.717534,20.432035,2,,0,,,0
3002,3002,Topčiderska Reka - Prilaz,,44.699486,20.454029,2,,0,,,0
3003,3003,Topčiderska Reka - Prilaz,,44.699491,20.45445,2,,0,,,0
3004,3004,Patrijarha Pavla,,44.83069,20.30074,2,,0,,,0
3005,3005,Milana Konjovića ,,44.8276989,20.3015983,2,,0,,,0
3006,3006,Vasilija Ostroškog,,44.824992,20.306622,2,,0,,,0
3007,3007,Kralja Petra I,,44.8257116,20.3115176,2,,0,,,0
3008,3008,Nemanjina 2,,44.826371,20.315092,2,,0,,,0
3009,3009,Nemanjina 1,,44.828901,20.314347,2,,0,,,0
3010,3010,Ličkih Brigada,,44.72222,20.44996,2,,0,,,0
3011,3011,Ličkih Brigada,,44.72201,20.45001,2,,0,,,0
3012,3012,Rađevska,,44.720404,20.450901,2,,0,,,0
3013,3013,Rađevska,,44.72063,20.45084,2,,0,,,0
3014,3014,Braće Jeremića,,44.71677,20.4512,2,,0,,,0
3015,3015,Braće Jeremića,,44.71638,20.4514,2,,0,,,0
3016,3016,Vrtić,,44.714013,20.452293,2,,0,,,0
3017,3017,Vrtić,,44.71456,20.452,2,,0,,,0
3018,3018,Železnička Stanica Topčider,,44.776998,20.437438,1,,0,,,0
3019,3019,Miljakovac 3,,44.738147,20.463341,2,,0,,,0
3020,3020,Katice Opačić 1,,44.9173372,20.2747105,2,,0,,,0
3021,3021,Španskih Boraca,,44.808812,20.414092,1,,0,,,0
3022,3022,Medaković 2,,44.77711,20.499609,1,,0,,,0
3023,3023,Živka Davidovića,,44.7827495,20.5209572,1,,0,,,0
3024,3024,Živka Davidovića,,44.78274,20.521214,1,,0,,,0
3025,3025,Petlja Radnička,,44.790853,20.427084,1,,0,,,0
3026,3026,Petlja Radnička,,44.791246,20.427358,1,,0,,,0
3027,3027,Đorđa Stanojevića,,44.807294,20.415297,1,,0,,,0
3028,3028,Đorđa Stanojevića,,44.806892,20.415841,1,,0,,,0
3029,3029,Petlja Radnička,,44.79249,20.426967,1,,0,,,0
3030,3030,Petlja Radnička,,44.791959,20.426947,1,,0,,,0
3031,3031,Trg Republike,,44.815746,20.461645,1,,0,,,0
3032,3032,Studentski Trg,,44.8187999,20.4576375,1,,0,,,0
3033,3033,Groblje,,44.696374,20.478452,2,,0,,,0
3034,3034,Donji Kraj,,44.696291,20.475382,2,,0,,,0
3035,3035,Donji Kraj,,44.69603,20.474902,2,,0,,,0
3036,3036,Pinosava,,44.69582,20.470836,2,,0,,,0
3037,3037,Put Za Beli Potok,,44.706287,20.508604,2,,0,,,0
3038,3038,Put Za Beli Potok,,44.707692,20.508365,2,,0,,,0
3039,3039,Put Za Src,,44.7812656,20.2503113,2,,0,,,0
3040,3040,Sretena Mladenovića Mike,,44.738058,20.420908,2,,0,,,0
3041,3041,Bože Jeremića,,44.737104,20.423567,2,,0,,,0
3042,3042,Bože Jeremića,,44.737096,20.423412,2,,0,,,0
3043,3043,Susedgradska,,44.73995,20.426103,2,,0,,,0
3044,3044,Susedgradska,,44.739829,20.426057,2,,0,,,0
3045,3045,Vidikovačka,,44.741401,20.424702,2,,0,,,0
3046,3046,Resnički Put,,44.69843,20.45144,2,,0,,,0
3047,3047,Resnički Put,,44.69859,20.45155,2,,0,,,0
3048,3048,Orlovac,,44.69138,20.44406,2,,0,,,0
3049,3049,Orlovac,,44.69148,20.44386,2,,0,,,0
3052,3052,Jerusalimska,,44.777173,20.519407,2,,0,,,0
3053,3053,Trg Slavija,,44.802709,20.466675,1,,0,,,0
3054,3054,Trg Slavija,,44.802709,20.466012,1,,0,,,0
3055,3055,Branislava Jovanovića,,44.625189,20.458359,3,,0,,,0
3056,3056,Mz Vml,,44.760394,20.525397,2,,0,,,0
3057,3057,Lepenskog Vira,,44.755957,20.529228,2,,0,,,0
3058,3058,Vladimira Ćorovića (Ulaz),,44.75485,20.530347,2,,0,,,0
3059,3059,Novo Naselje,,44.753222,20.528299,2,,0,,,0
3060,3060,Jovijanova,,44.751953,20.526696,2,,0,,,0
3061,3061,Gaj,,44.750372,20.526534,2,,0,,,0
3062,3062,Stražarska Kosa ,,44.748061,20.525326,2,,0,,,0
3063,3063,Mitkov Kladenac (Izlaz),,44.748061,20.52268,2,,0,,,0
3064,3064,Mitkov Kladenac,,44.753279,20.522708,2,,0,,,0
3065,3065,Bilce,,44.75567,20.520868,2,,0,,,0
3066,3066,Barutana,,44.759188,20.533662,2,,0,,,0
3067,3067,Milana Grigorijevića,,44.756275,20.532837,2,,0,,,0
3068,3068,Vladimira Dvornikovića,,44.756478,20.530606,2,,0,,,0
3069,3069,Oš Vladislava Petković,,44.758951,20.528247,2,,0,,,0
3070,3070,Mate Miloševića,,44.760842,20.508295,2,,0,,,0
3071,3071,Miljana Miljanića,,44.762746,20.508257,2,,0,,,0
3072,3072,Vojvode Vlahovića (Terminus),,44.764195,20.510861,2,,0,,,0
3073,3073,Vojvode Vlahovića (Terminus),,44.764044,20.5107,2,,0,,,0
3074,3074,Vii Beogradska Gimnazija,,44.797178,20.527684,1,,0,,,0
3075,3075,Vii Beogradska Gimnazija,,44.797011,20.527325,1,,0,,,0
3076,3076,Dr Aćima Medovića,,44.71151,20.45965,2,,0,,,0
3077,3077,Dr Aćima Medovića,,44.71154,20.45976,2,,0,,,0
3078,3078,Pašinac,,44.710215,20.458346,2,,0,,,0
3079,3079,Pašinac,,44.71029,20.45858,2,,0,,,0
3080,3080,8. Septembra,,44.70896,20.45527,2,,0,,,0
3081,3081,8. Septembra,,44.70888,20.45527,2,,0,,,0
3082,3082,Brestovačka,,44.70821,20.45343,2,,0,,,0
3083,3083,Brestovačka,,44.70852,20.45284,2,,0,,,0
3084,3084,Moračko Brdo,,44.687935,20.315165,2,,0,,,0
3085,3085,Moračko Brdo,,44.687977,20.315054,2,,0,,,0
3088,3088,Milorada Živkovića,,44.678458,20.434451,2,,0,,,0
3089,3089,Milorada Živkovića,,44.6787,20.43426,2,,0,,,0
3090,3090,Jove Mitrovića,,44.67813,20.43749,2,,0,,,0
3091,3091,Jove Mitrovića,,44.67831,20.43799,2,,0,,,0
3092,3092,Drobnjački Kraj 2,,44.67705,20.43977,2,,0,,,0
3093,3093,Drobnjački Kraj 2,,44.67703,20.44003,2,,0,,,0
3094,3094,Drobnjački Kraj 1,,44.67603,20.44378,2,,0,,,0
3095,3095,Drobnjački Kraj 1,,44.676102,20.443399,2,,0,,,0
3096,3096,Rušanj (Drobnjački Kraj),,44.67542,20.4465,2,,0,,,0
3097,3097,Veselina Čajkanovića,,44.771889,20.504993,1,,0,,,0
3098,3098,Narednika Dragutina Radakovića,,44.746381,20.521097,2,,0,,,0
3099,3099,Narednika Dragutina Radakovića,,44.746048,20.520817,2,,0,,,0
3100,3100,Ntp Ulaz,,44.805347,20.500927,1,,0,,,0
3101,3101,Ntp Ulaz,,44.805463,20.500847,1,,0,,,0
3102,3102,Zvezdarskih Jelki,,44.808771,20.495412,1,,0,,,0
3103,3103,Zvezdarskih Jelki,,44.808795,20.496371,1,,0,,,0
3104,3104,Savski Park,,44.806108,20.451237,1,,0,,,0
3105,3105,Savski Park,,44.807372,20.451665,1,,0,,,0
3106,3106,Kula Beograd,,44.80299,20.44805,1,,0,,,0
3107,3107,Kula Beograd,,44.80332,20.44918,1,,0,,,0
3108,3108,Tc Galerija,,44.80124,20.44542,1,,0,,,0
3109,3109,Tc Galerija,,44.80173,20.4465,1,,0,,,0
3110,3110,Beograd Na Vodi,,44.801378,20.44391,1,,0,,,0
3111,3111,Beograd Na Vodi,,44.80115,20.4444,1,,0,,,0
3112,3112,Beograd Na Vodi,,44.800814,20.444695,1,,0,,,0
3113,3113,Bolnica,,44.88015,20.3294,2,,0,,,0
3114,3114,Bolnica,,44.87903,20.33185,2,,0,,,0
3115,3115,Muzej Savremene Umetnosti,,44.819133,20.443569,1,,0,,,0
3116,3116,Muzej Savremene Umetnosti,,44.819525,20.443366,1,,0,,,0
3117,3117,Beograd Na Vodi,,44.80077,20.44418,1,,0,,,0
3118,3118,Jakovička Src ,,44.786481,20.232426,2,,0,,,0
3119,3119,Park Ključ,,44.781977,20.235587,2,,0,,,0
3120,3120,Don Kihotova,,44.782708,20.240784,2,,0,,,0
3121,3121,Žička,,44.783183,20.244508,2,,0,,,0
3124,3124,Brzačka,,44.63704,20.43788,3,,0,,,0
3125,3125,Brzačka,,44.63683,20.4378,3,,0,,,0
3127,3127,Savski Most,,44.81026,20.45295,1,,0,,,0
3128,3128,Vojina Jugovića,,44.75641,20.573032,2,,0,,,0
3129,3129,Cerska,,44.754706,20.569194,2,,0,,,0
3130,3130,Meše Selimovića,,44.753179,20.568523,2,,0,,,0
3131,3131,Rifata Burdževića,,44.753564,20.563573,2,,0,,,0
3132,3132,Dragoljuba Stojanovića,,44.752949,20.561017,2,,0,,,0
3133,3133,Kaluđerica (Višnjićeva),,44.755226,20.552934,2,,0,,,0
3134,3134,Dragoljuba Stojanovića,,44.752887,20.561073,2,,0,,,0
3135,3135,Rifata Burdževića,,44.7534436,20.564038,2,,0,,,0
3136,3136,Meše Selimovića,,44.753152,20.568595,2,,0,,,0
3137,3137,Cerska,,44.754773,20.569254,2,,0,,,0
3138,3138,Vojina Jugovića,,44.756373,20.573071,2,,0,,,0
3139,3139,Kaluđerica (Put Za Institut),,44.76491,20.56451,2,,0,,,0
3140,3140,Cara Uroša,,44.820747,20.454602,1,,0,,,0
3141,3141,Kalemegdan,,44.821297,20.454654,1,,0,,,0
3142,3142,Savski Most,,44.80983,20.45217,1,,0,,,0
3143,3143,Železnička Stanica Zemun,,44.836127,20.371006,2,,0,,,0
3144,3144,Železnička Stanica Zemun,,44.8361915,20.3706781,2,,0,,,0
3145,3145,Tc Zmaj,,44.836581,20.368099,2,,0,,,0
3146,3146,Mlavska,,44.7911,20.51703,1,,0,,,0
3147,3147,Trg Slavija /Tiršova/,,44.7993914,20.4648248,1,,0,,,0
3148,3148,Oš Veljko Dugošević,,44.79688,20.50322,1,,0,,,0
3149,3149,Oš Veljka Dugoševića,,44.796937,20.503121,1,,0,,,0
3150,3150,"Studenski Dom ""Rifat Burdžević""",,44.79581,20.50754,1,,0,,,0
3151,3151,"Studenski Dom ""Rifat Burdžević""",,44.79612,20.50676,1,,0,,,0
3152,3152,Deskaševa,,44.794332,20.512778,1,,0,,,0
3153,3153,Deskaševa,,44.79446,20.51256,1,,0,,,0
3154,3154,Budmanijeva,,44.79126,20.51571,1,,0,,,0
3155,3155,Koste Trifkovića,,44.788837,20.518232,1,,0,,,0
3156,3156,Koste Trifkovića,,44.789124,20.518019,1,,0,,,0
3157,3157,Ilidenska,,44.787287,20.518982,1,,0,,,0
3158,3158,Ilidenska,,44.7874,20.51889,1,,0,,,0
3159,3159,Lošinjska Donja,,44.78429,20.52479,1,,0,,,0
3160,3160,Lošinjnska Donja,,44.784358,20.524697,1,,0,,,0
3161,3161,Zabrđanska,,44.781492,20.525853,1,,0,,,0
3162,3162,Zabrđanska,,44.78161,20.5261,1,,0,,,0
3163,3163,Zeleno Brdo,,44.782696,20.526316,1,,0,,,0
3164,3164,Mihaila Todorovića,,44.780905,20.512496,1,,0,,,0
3165,3165,Mihaila Todorovića,,44.78097,20.51284,1,,0,,,0
3166,3166,Oš Stevan Sinđelić,,44.780205,20.50653,1,,0,,,0
3167,3167,Oš Stevan Sinđelić,,44.779939,20.507212,1,,0,,,0
3168,3168,Mirka Sandića,,44.782958,20.514439,1,,0,,,0
3169,3169,Mirka Sandića,,44.783212,20.515768,1,,0,,,0
3191,3191,"Vrtić ""Oaza""",,44.87449,20.34036,2,,0,,,0
3192,3192,"Vrtić ""Oaza""",,44.8743,20.33952,2,,0,,,0
3193,3193,Ilije Guteše,,44.77033,20.55823,2,,0,,,0
3194,3194,Ilije Guteše,,44.77082,20.55744,2,,0,,,0
3481,3481,Preka Kaldrma,,44.8063055,20.1001026,2,,0,,,0
3513,3513,Džona Kenedija 1,,44.833417,20.410812,1,,0,,,0
3519,3519,13.Oktobra,,44.716692,20.448347,2,,0,,,0
3530,3530,13.Oktobra,,44.716467,20.448503,2,,0,,,0
3534,3534,Boleč,,44.7215703,20.6076312,2,,0,,,0
3628,3628,Jna,,44.8768731,20.4587777,2,,0,,,0
3648,3648,Milorada Jankovića Doce,,44.710774,20.453533,2,,0,,,0
3649,3649,Milorada Jankovića Doce,,44.710812,20.453197,2,,0,,,0
3650,3650,Studentski Trg,,44.8192722,20.4573428,1,,0,,,0
3694,3694,Slavka Rodića,,44.738989,20.434126,2,,0,,,0
3695,3695,Vareška,,44.750373,20.445732,2,,0,,,0
3696,3696,Vareška,,44.750438,20.445874,2,,0,,,0
3699,3699,Careva Ćuprija,,44.786439,20.431622,1,,0,,,0
3700,3700,Careva Ćuprija,,44.786552,20.431733,1,,0,,,0
3703,3703,Trg Slavija,,44.8034854,20.4656235,1,,0,,,0
3735,3735,Novi Železnik 1,,44.731753,20.379752,2,,0,,,0
3736,3736,Palata Pravde 1,,44.8030137,20.4514901,1,,0,,,0
3737,3737,Novi Železnik 1,,44.731719,20.380189,2,,0,,,0
3743,3743,Savski Trg,,44.80691,20.455408,1,,0,,,0
3757,3757,Bas,,44.80983,20.45217,1,,0,,,0
3882,3882,Batajnica /Šangajska/,,44.90017,20.269,2,,0,,,0
3889,3889,1000 Ruža,,44.71655,20.50393,2,,0,,,0
3890,3890,1000 Ruža,,44.71657,20.50411,2,,0,,,0
3894,3894,Azil Za Pse,,44.7217675,20.4714424,2,,0,,,0
3895,3895,Rakovački Potok,,44.71861,20.46842,2,,0,,,0
3896,3896,Miodraga Bulatovića,,44.71987,20.47007,2,,0,,,0
3897,3897,Azil Za Pse,,44.72185,20.47152,2,,0,,,0
3965,3965,Emila Zatopeka 1,,44.85683,20.3471,2,,0,,,0
3967,3967,Emila Zatopeka 1,,44.85686,20.34694,2,,0,,,0
3968,3968,Dijega Rivera 1,,44.85893,20.34405,2,,0,,,0
3986,3986,Konstantina Kavafija 1,,44.85545,20.34917,2,,0,,,0
3987,3987,Episkopa Sergeja,,44.8579,20.34474,2,,0,,,0
3988,3988,Konstantina Kavafija 1,,44.8554523,20.3489878,2,,0,,,0
3989,3989,Mileševska,,44.7984107,20.4833914,1,,0,,,0
3998,3998,Peđe Milosavljevića 1,,44.8170065,20.377235,1,,0,,,0
5015,5015,Beograd Na Vodi,,44.8013432,20.4439913,1,,0,,,0
5016,5016,Železnička Stanica Beograd Centar,,44.7925876,20.4579841,1,,0,,,0
5017,5017,Železnička Stanica Beograd Centar,,44.792488,20.457577,1,,0,,,0
7184,7184,Ralja /Robna Kuća/,,44.57225,20.561541,3,,0,,,0
7185,7185,Ralja /Robna Kuća/,,44.572058,20.561641,3,,0,,,0
7651,7651,Barajevo - Centar,,44.5780517,20.4156033,3,,0,,,0
7652,7652,Barajevo - Centar,,44.5780403,20.4152733,3,,0,,,0
7653,7653,Barajevo (Miodraga Vukovića),,44.5823067,20.4224083,3,,0,,,0
7654,7654,Barajevo (Miodraga Vukovića),,44.5825067,20.4226217,3,,0,,,0
7656,7656,Barajevo As,,44.57988,20.413445,3,,0,,,0
7804,7804,Karaula R,,44.5887637,20.4287455,3,,0,,,0
7808,7808,Kuzmanovići R,,44.621107,20.42933,3,,0,,,0
7809,7809,Kuzmanovići R,,44.621213,20.429443,3,,0,,,0
7877,7877,Petkovići - Trafo,,44.632915,20.434839,3,,0,,,0
7878,7878,Petkovići - Trafo,,44.6329917,20.4350367,3,,0,,,0
7879,7879,Petkovići Raskrsnica,,44.641568,20.441715,3,,0,,,0
7880,7880,Petkovići Raskrsnica,,44.641455,20.441587,3,,0,,,0
7941,7941,Simić - R,,44.626497,20.429264,3,,0,,,0
7942,7942,Simić - R,,44.626713,20.42934,3,,0,,,0
7968,7968,Stara Lipovica - Okretnica,,44.6139617,20.43068,3,,0,,,0
7969,7969,Manastir,,44.6166,20.430119,3,,0,,,0
7970,7970,Manastir,,44.616217,20.430603,3,,0,,,0
