stop_id,stop_code,stop_name,stop_desc,stop_lat,stop_lon,zone_id,stop_url,location_type,parent_station,stop_timezone,wheelchair_boarding
1,1,Kalemegdan (Donji Grad),,44.8268096,20.4532741,1,,0,,,0
2,2,Tadeuša Košćuška,,44.8259171,20.455243,1,,0,,,0
3,3,Tadeuša Košćuška,,44.8262534,20.4549667,1,,0,,,0
4,4,Kalemegdan,,44.8203288,20.4532518,1,,0,,,0
5,5,Kalemegdan,,44.8208843,20.4540765,1,,0,,,0
6,6,Pristanište,,44.8186623,20.4494119,1,,0,,,0
7,7,Pristanište,,44.8189915,20.4495147,1,,0,,,0
8,8,Brankov Most,,44.814955,20.4507714,1,,0,,,0
9,9,Brankov Most,,44.8145626,20.4511267,1,,0,,,0
10,10,Ekonomski Fakultet,,44.8108839,20.4541239,1,,0,,,0
11,11,Ekonomski Fakultet,,44.8123596,20.4533806,1,,0,,,0
14,14,Palata Pravde,,44.8043401,20.4529576,1,,0,,,0
15,15,Palata Pravde,,44.8046468,20.4533204,1,,0,,,0
16,16,Mostar,,44.7986157,20.4485459,1,,0,,,0
17,17,Mostar,,44.7987781,20.4488534,1,,0,,,0
18,18,Sajam,,44.7965092,20.4428016,1,,0,,,0
19,19,Sajam,,44.7965425,20.4426205,1,,0,,,0
20,20,Ruska,,44.7951516,20.4377435,1,,0,,,0
21,21,Ruska,,44.795162,20.4373957,1,,0,,,0
22,22,Gospodarska Mehana,,44.7937116,20.4309756,1,,0,,,0
23,23,Gospodarska Mehana,,44.7937709,20.431366,1,,0,,,0
52,52,Dorćol /Kneginje Ljubice/,,44.8211062,20.464118,1,,0,,,0
53,53,Dorćol /Kneginje Ljubice/,,44.8212927,20.4641785,1,,0,,,0
54,54,Pijaca Skadarlija,,44.8182128,20.4670432,1,,0,,,0
55,55,Pijaca Skadarlija,,44.8186002,20.4669921,1,,0,,,0
56,56,Bulevar Despota Stefana,,44.8163458,20.4693717,1,,0,,,0
57,57,Bulevar Despota Stefana,,44.8166332,20.4693201,1,,0,,,0
58,58,Takovska,,44.8136364,20.4718202,1,,0,,,0
59,59,Takovska,,44.8132911,20.4723789,1,,0,,,0
60,60,Bežanijska Kosa /Grčka/,,44.81562,20.3712,1,,0,,,0
61,61,Palilulska Pijaca,,44.8105114,20.4747218,1,,0,,,0
62,62,Mašinski Fakultet,,44.80765,20.47721,1,,0,,,0
63,63,Vukov Spomenik,,44.8055219,20.4778908,1,,0,,,0
64,64,Vukov Spomenik,,44.8056059,20.4783626,1,,0,,,0
65,65,Pravni Fakultet,,44.8068231,20.4711145,1,,0,,,0
66,66,Pravni Fakultet,,44.8063686,20.4732286,1,,0,,,0
67,67,Trg Slavija /Nemanjina/,,44.8035254,20.4640694,1,,0,,,0
68,68,Trg Slavija /Nemanjina/,,44.8029655,20.4646244,1,,0,,,0
69,69,Savski Trg,,44.807638,20.457218,1,,0,,,0
70,70,Savski Trg,,44.807161,20.457861,1,,0,,,0
71,71,Braće Baruh,,44.8249325,20.4570548,1,,0,,,0
72,72,Braće Baruh,,44.825107,20.4570979,1,,0,,,0
73,73,Kralja Petra,,44.8233,20.46012,1,,0,,,0
74,74,Kralja Petra,,44.8234899,20.4601112,1,,0,,,0
75,75,Dinarska,,44.787778,20.462744,1,,0,,,0
76,76,Omladinski Stadion,,44.8147182,20.4911811,1,,0,,,0
77,77,Vatrogasna Komanda,,44.812013,20.4878232,1,,0,,,0
78,78,Vatrogasna Komanda,,44.8127674,20.4889325,1,,0,,,0
79,79,Novo Groblje,,44.8098633,20.4847429,1,,0,,,0
80,80,Novo Groblje,,44.8108813,20.4866457,1,,0,,,0
81,81,"Vmc ""Karaburma""",,44.81307,20.49208,1,,0,,,0
82,82,Studentski Trg,,44.8185173,20.4575616,1,,0,,,0
83,83,Gradska Bolnica,,44.7999681,20.498964,1,,0,,,0
84,84,Tašmajdan /Park/,,44.8095925,20.4679937,1,,0,,,0
85,85,Mašinski Fakultet,,44.8077358,20.476938,1,,0,,,0
86,86,Vukov Spomenik /Bul.Kralja Aleksa./,,44.8040306,20.4787341,1,,0,,,0
87,87,Go Zvezdara,,44.8023429,20.4827651,1,,0,,,0
88,88,Go Zvezdara,,44.8026658,20.4822055,1,,0,,,0
89,89,Pijaca Đeram,,44.8004384,20.4873457,1,,0,,,0
90,90,Pijaca Đeram,,44.8010396,20.4861159,1,,0,,,0
91,91,Batutova,,44.7953953,20.4997175,1,,0,,,0
92,92,Pop Stojanova,,44.798647,20.4916456,1,,0,,,0
93,93,Pop Stojanova,,44.7994899,20.4898449,1,,0,,,0
94,94,Lion,,44.7970072,20.4955096,1,,0,,,0
95,95,Lion,,44.7975106,20.4945356,1,,0,,,0
96,96,Batutova,,44.7951453,20.4998372,1,,0,,,0
97,97,Batutova,,44.795982,20.4981184,1,,0,,,0
98,98,Pijaca Zvezdara,,44.7930769,20.5049009,1,,0,,,0
99,99,Pijaca Zvezdara,,44.7933027,20.5047418,1,,0,,,0
100,100,Dr Velizara Kosanovića,,44.7925325,20.5090252,1,,0,,,0
101,101,Dr Velizara Kosanovića,,44.792018,20.5107837,1,,0,,,0
102,102,Mite Ružića,,44.7904937,20.5136638,1,,0,,,0
103,103,Mite Ružića,,44.79109,20.512623,1,,0,,,0
104,104,Koste Trifkovića,,44.7886761,20.5162984,1,,0,,,0
105,105,Koste Trifkovića,,44.7893815,20.5158182,1,,0,,,0
106,106,Ustanička,,44.7849339,20.5176852,1,,0,,,0
107,107,Ustanička,,44.7845328,20.5185952,1,,0,,,0
108,108,Vukov Spomenik /Bul.Kralja Aleksa./,,44.8045797,20.4776526,1,,0,,,0
109,109,Pravni Fakultet,,44.8075868,20.4708758,1,,0,,,0
110,110,Banovo Brdo Ok,,44.768053,20.4137999,1,,0,,,0
111,111,Tašmajdan,,44.8087623,20.4667588,1,,0,,,0
112,112,Tašmajdan,,44.8093014,20.4675287,1,,0,,,0
113,113,Rk Beograđanka,,44.8062283,20.4637085,1,,0,,,0
114,114,Rk Beograđanka,,44.806534,20.4642308,1,,0,,,0
115,115,Ekonomski Fakultet,,44.8107837,20.4532522,1,,0,,,0
116,116,Staro Sajmište,,44.811749,20.43994,1,,0,,,0
117,117,Staro Sajmište,,44.8119131,20.4389698,1,,0,,,0
118,118,Blok 21,,44.8137528,20.4334929,1,,0,,,0
119,119,Blok 21,,44.813911,20.4340516,1,,0,,,0
120,120,Sava Centar,,44.8091587,20.4293322,1,,0,,,0
121,121,Sava Centar,,44.8101307,20.430628,1,,0,,,0
122,122,Blok 23,,44.8067164,20.4271201,1,,0,,,0
123,123,Blok 23,,44.8068669,20.4276701,1,,0,,,0
124,124,Milutina Milankovića,,44.8071314,20.4221298,1,,0,,,0
125,125,Milutina Milankovića,,44.8068631,20.422518,1,,0,,,0
126,126,Železnička Stanica Novi Beograd,,44.8066685,20.4181675,1,,0,,,0
127,127,Železnička Stanica Novi Beograd,,44.8068986,20.4184967,1,,0,,,0
128,128,Blok 42,,44.8039679,20.416257,1,,0,,,0
129,129,Blok 42,,44.8046742,20.4173261,1,,0,,,0
130,130,Agostina Neta,,44.8045794,20.4027607,1,,0,,,0
131,131,Agostina Neta,,44.8044091,20.404725,1,,0,,,0
132,132,Omladinskih Brigada,,44.8045678,20.3984026,1,,0,,,0
133,133,Omladinskih Brigada,,44.8045221,20.4002405,1,,0,,,0
134,134,Blok 70,,44.8042263,20.393378,1,,0,,,0
135,135,Blok 70,,44.8042017,20.3938915,1,,0,,,0
136,136,Gandijeva,,44.803299,20.3871984,1,,0,,,0
137,137,Gandijeva,,44.8035326,20.3888872,1,,0,,,0
138,138,Nehruova,,44.8015162,20.3801801,1,,0,,,0
139,139,Nehruova,,44.8019202,20.3818127,1,,0,,,0
140,140,Oš Branko Radičević,,44.7997959,20.3754264,1,,0,,,0
141,141,Oš Branko Radičević,,44.8003212,20.3769767,1,,0,,,0
142,142,Dr Ivana Ribara,,44.7969497,20.3716298,1,,0,,,0
143,143,Dr Ivana Ribara,,44.7981796,20.3720192,1,,0,,,0
144,144,Blok 45,,44.793903,20.374039,1,,0,,,0
145,145,Blok 45,,44.79375,20.374307,1,,0,,,0
146,146,Trg Slavija /Bulevar Oslobođenja/,,44.8013366,20.4660143,1,,0,,,0
147,147,Trg Slavija /Bulevar Oslobođenja/,,44.8014387,20.4662564,1,,0,,,0
148,148,Karađorđev Park,,44.7969751,20.4652072,1,,0,,,0
149,149,Karađorđev Park,,44.798345,20.465707,1,,0,,,0
150,150,Franše Deperea,,44.7926003,20.4662868,1,,0,,,0
151,151,Franše Deperea,,44.7931005,20.4661949,1,,0,,,0
152,152,Zvečanska,,44.7884554,20.4656455,1,,0,,,0
153,153,Trg Oslobođenja,,44.787253,20.466259,1,,0,,,0
154,154,Trg Oslobođenja,,44.786299,20.46728,1,,0,,,0
155,155,"Vmc ""Karaburma""",,44.81356,20.49231,1,,0,,,0
156,156,Bože Jankovića,,44.783634,20.470226,1,,0,,,0
157,157,Kralja Vladimira,,44.782021,20.471461,1,,0,,,0
158,158,Kralja Vladimira,,44.781635,20.471786,1,,0,,,0
159,159,Vitanovačka,,44.778531,20.473901,1,,0,,,0
160,160,Vitanovačka,,44.777145,20.474586,1,,0,,,0
161,161,Petrovačka,,44.775239,20.475421,1,,0,,,0
162,162,Servisi,,44.810068,20.49335,1,,0,,,0
163,163,Nikšićka,,44.771439,20.477933,1,,0,,,0
164,164,Nikšićka,,44.773073,20.477096,1,,0,,,0
165,165,Visoka Škola Elektrotehnike,,44.768393,20.479632,1,,0,,,0
166,166,Visoka Škola Elektrotehnike,,44.769197,20.479081,1,,0,,,0
167,167,Saobraćajni Fakultet,,44.765218,20.482517,1,,0,,,0
168,168,Saobraćajni Fakultet,,44.765949,20.4822,1,,0,,,0
169,169,Voždovac,,44.7608213,20.4847029,1,,0,,,0
170,170,Banjica,,44.756943,20.4780857,1,,0,,,0
171,171,Banjica,,44.7569169,20.4772965,1,,0,,,0
172,172,Vračarska,,44.7570279,20.4812971,1,,0,,,0
173,173,Vračarska,,44.7572317,20.4808123,1,,0,,,0
174,174,Voždovac,,44.7614246,20.484245,1,,0,,,0
175,175,Voždovac,,44.7611691,20.4840499,1,,0,,,0
176,176,Pravni Fakultet,,44.8075599,20.4721073,1,,0,,,0
177,177,Hipodrom,,44.7876828,20.4239284,1,,0,,,0
178,178,Hipodrom,,44.7878619,20.4243942,1,,0,,,0
179,179,Kneza Višeslava,,44.7830859,20.4210402,1,,0,,,0
180,180,Kneza Višeslava,,44.7834846,20.4226731,1,,0,,,0
181,181,Škola Josif Pančić,,44.7810389,20.4171353,1,,0,,,0
182,182,Škola Josif Pančić,,44.7815428,20.4177667,1,,0,,,0
183,183,Dom Zdravlja,,44.7777676,20.4144755,1,,0,,,0
184,184,Dom Zdravlja,,44.779142,20.4159022,1,,0,,,0
185,185,Kijevska,,44.7753902,20.4135524,1,,0,,,0
186,186,Kijevska,,44.7759249,20.4137819,1,,0,,,0
187,187,Trebevićka,,44.7712774,20.4140971,1,,0,,,0
188,188,Trebevićka,,44.7715863,20.4142866,1,,0,,,0
189,189,Banovo Brdo,,44.7685282,20.4130055,1,,0,,,0
190,190,Park Tašmajdan,,44.8089377,20.4688885,1,,0,,,0
191,191,Omladinskih Brigada 1,,44.8143556,20.4040069,1,,0,,,0
192,192,Beogradska Arena /Antifašističke Borbe/,,44.8117492,20.4223993,1,,0,,,0
193,193,Trg Republike,,44.8171543,20.4596755,1,,0,,,0
194,194,Trg Republike,,44.8172515,20.4597975,1,,0,,,0
195,195,Terazije,,44.8126611,20.4610426,1,,0,,,0
196,196,Terazije,,44.8133811,20.4609536,1,,0,,,0
197,197,Rk Beograđanka,,44.8072057,20.4640461,1,,0,,,0
198,198,Rk Beograđanka,,44.8075759,20.4640601,1,,0,,,0
199,199,Trg Slavija,,44.803307,20.466166,1,,0,,,0
200,200,Trg Slavija,,44.8036178,20.4661851,1,,0,,,0
201,201,Katanićeva,,44.7994818,20.4717603,1,,0,,,0
202,202,Novopazarska,,44.7980191,20.473978,1,,0,,,0
203,203,Mačvanska,,44.7977761,20.4740654,1,,0,,,0
204,204,Katanićeva,,44.8001305,20.4711513,1,,0,,,0
205,205,Vojvode Dragomira,,44.7979517,20.4791509,1,,0,,,0
206,206,Vojvode Dragomira,,44.7981149,20.4801466,1,,0,,,0
207,207,Crveni Krst,,44.7973729,20.4873766,1,,0,,,0
208,208,Crveni Krst,,44.7979419,20.4857114,1,,0,,,0
209,209,Bregalnička,,44.7950716,20.4907647,1,,0,,,0
210,210,Bregalnička,,44.7952652,20.4906487,1,,0,,,0
211,211,Velimira Todorovića,,44.7933015,20.4950784,1,,0,,,0
212,212,Velimira Todorovića,,44.7937887,20.494294,1,,0,,,0
213,213,Škola Vojislav Ilić,,44.790819,20.4979448,1,,0,,,0
214,214,Škola Vojislav Ilić,,44.7919,20.4973726,1,,0,,,0
215,215,Rimska,,44.7874747,20.4996837,1,,0,,,0
216,216,Rimska,,44.7871448,20.5001177,1,,0,,,0
217,217,Šumice,,44.7831807,20.5023336,1,,0,,,0
218,218,Šumice,,44.7840237,20.5012584,1,,0,,,0
219,219,Petrinjska,,44.7826051,20.5072393,1,,0,,,0
220,220,Petrinjska,,44.7830225,20.505614,1,,0,,,0
221,221,Konjarnik,,44.7820475,20.5118648,1,,0,,,0
222,222,Konjarnik,,44.7824125,20.5104825,1,,0,,,0
223,223,Rimska,,44.7866817,20.5009334,1,,0,,,0
224,224,Rimska,,44.7869449,20.5012021,1,,0,,,0
225,225,Peđe Milosavljevića,,44.8179122,20.3770183,1,,0,,,0
226,226,Dr Velizara Kosanovića,,44.788128,20.5046576,1,,0,,,0
227,227,Marčanska,,44.7872192,20.5088259,1,,0,,,0
228,228,Učiteljsko Naselje,,44.7861084,20.5069857,1,,0,,,0
229,229,Bačvanska,,44.791018,20.494264,1,,0,,,0
230,230,Bačvanska,,44.7909296,20.4937384,1,,0,,,0
231,231,Grčića Milenka,,44.7915335,20.4908027,1,,0,,,0
232,232,Grčića Milenka,,44.791663,20.4892588,1,,0,,,0
236,236,13. Maj /Ulaz/,,44.88391,20.34,2,,0,,,0
237,237,Beogradska Arena /Španskih Boraca/,,44.8136657,20.4182221,1,,0,,,0
238,238,Makedonska,,44.8152304,20.465301,1,,0,,,0
239,239,27. Marta,,44.8136931,20.4727333,1,,0,,,0
240,240,27. Marta,,44.81285,20.4713,1,,0,,,0
241,241,Jaše Prodanovića,,44.8147395,20.4773697,1,,0,,,0
242,242,Jaše Prodanovića,,44.8151952,20.4764661,1,,0,,,0
243,243,Zdravka Čelara,,44.8108918,20.4794788,1,,0,,,0
244,244,Zdravka Čelara,,44.8117925,20.4790407,1,,0,,,0
245,245,Podvožnjak,,44.8062675,20.4835152,1,,0,,,0
246,246,Podvožnjak,,44.8062108,20.4838191,1,,0,,,0
247,247,Marka Oreškovića,,44.803107,20.488641,1,,0,,,0
248,248,Marka Oreškovića,,44.8041592,20.4868742,1,,0,,,0
249,249,Šabačka,,44.8011503,20.4936255,1,,0,,,0
250,250,Živojina Žujovića,,44.8016383,20.4925911,1,,0,,,0
251,251,Čegarska,,44.8008487,20.4957191,1,,0,,,0
252,252,Gradska Bolnica,,44.7996743,20.5003885,1,,0,,,0
253,253,Gradska Bolnica,,44.8001007,20.4991855,1,,0,,,0
254,254,Miloša Jankovića,,44.7993201,20.5031975,1,,0,,,0
255,255,Miloša Jankovića,,44.7993554,20.5037258,1,,0,,,0
256,256,Zvezdara,,44.7982332,20.5060759,1,,0,,,0
257,257,Zvezdara,,44.7982668,20.5070963,1,,0,,,0
258,258,Šumice,,44.7828929,20.5013781,1,,0,,,0
259,259,Vladimira Tomanovića,,44.7819356,20.5020329,1,,0,,,0
260,260,Medaković 2,,44.7748965,20.4997329,1,,0,,,0
261,261,Medaković 2,,44.775763,20.5002001,1,,0,,,0
262,262,Svetozara Radojčića,,44.7721658,20.5022407,1,,0,,,0
263,263,Svetozara Radojčića,,44.7721286,20.5026846,1,,0,,,0
264,264,Medaković 3,,44.7722888,20.5074489,1,,0,,,0
265,265,Medaković 3,,44.7722775,20.5079701,1,,0,,,0
266,266,Glavna Pošta,,44.8111274,20.4671298,1,,0,,,0
267,267,Glavna Pošta,,44.8113682,20.4684095,1,,0,,,0
268,268,Admirala Geprata,,44.8068131,20.461342,1,,0,,,0
269,269,London,,44.8079348,20.4629835,1,,0,,,0
270,270,Birčaninova,,44.8050959,20.4595891,1,,0,,,0
271,271,Miloša Pocerca,,44.8023209,20.455868,1,,0,,,0
272,272,Višegradska,,44.8017912,20.4556623,1,,0,,,0
273,273,Železnička Stanica Beograd Centar,,44.79314,20.45013,1,,0,,,0
274,274,Ortopedski Zavod,,44.7952244,20.4487627,1,,0,,,0
275,275,Muzej Jugoslavije,,44.7897102,20.454344,1,,0,,,0
276,276,Muzej Jugoslavije,,44.7910529,20.4533508,1,,0,,,0
277,277,Stadion Partizan,,44.7863122,20.4574114,1,,0,,,0
278,278,Stadion Partizan,,44.7860458,20.4575859,1,,0,,,0
279,279,Bolnica Dragiša Mišović,,44.7777467,20.458125,1,,0,,,0
280,280,Bolnica Dragiša Mišović,,44.7774138,20.4584376,1,,0,,,0
281,281,Paje Adamova,,44.7727336,20.4626273,1,,0,,,0
282,282,Paje Adamova,,44.7738118,20.4619016,1,,0,,,0
283,283,Banjica,,44.7693931,20.4660675,1,,0,,,0
284,284,Banjica,,44.7700005,20.4656419,1,,0,,,0
285,285,Vojnomedicinska Akademija,,44.7656429,20.4701174,1,,0,,,0
286,286,Vojnomedicinska Akademija,,44.7666401,20.4694174,1,,0,,,0
287,287,Plivalište Banjica,,44.7630575,20.4724584,1,,0,,,0
288,288,Plivalište Banjica,,44.7640596,20.4717497,1,,0,,,0
289,289,Paunova,,44.7599439,20.4762979,1,,0,,,0
290,290,Železnička Stanica Beograd Centar,,44.793403,20.450068,1,,0,,,0
291,291,Baštovanska,,44.7563146,20.476882,1,,0,,,0
292,292,Baštovanska,,44.7571205,20.4771784,1,,0,,,0
293,293,Kragujevačkih Đaka,,44.7541026,20.4775466,1,,0,,,0
294,294,Kragujevačkih Đaka,,44.7548903,20.476996,1,,0,,,0
295,295,Banjica 2,,44.7516965,20.4801156,1,,0,,,0
296,296,Zeleni Venac,,44.8140278,20.4559283,1,,0,,,0
297,297,Brankov Most,,44.8153546,20.4519996,1,,0,,,0
298,298,Brankov Most,,44.8150071,20.4527244,1,,0,,,0
299,299,Ušće,,44.8151954,20.4392285,1,,0,,,0
300,300,Ušće,,44.8151283,20.438983,1,,0,,,0
301,301,Milentija Popovića,,44.8128851,20.4290423,1,,0,,,0
302,302,Milentija Popovića,,44.8116872,20.4305794,1,,0,,,0
303,303,Palata Srbija,,44.821073,20.4300769,1,,0,,,0
304,304,Palata Srbija,,44.820347,20.4311991,1,,0,,,0
305,305,Hotel Jugoslavija,,44.8292718,20.4195112,1,,0,,,0
306,306,Hotel Jugoslavija,,44.8271208,20.4196261,1,,0,,,0
307,307,Džona Kenedija,,44.8353837,20.4182275,1,,0,,,0
308,308,Džona Kenedija,,44.8331847,20.4183597,1,,0,,,0
309,309,Sremčica,,44.650177,20.404354,2,,0,,,0
310,310,Karađorđev Trg,,44.8369856,20.4173163,1,,0,,,0
311,311,Makedonska,,44.8155083,20.4648426,1,,0,,,0
312,312,Aleksandra Dubčeka,,44.8389446,20.4109796,1,,0,,,0
313,313,Kbc Zemun,,44.8412496,20.4063507,1,,0,,,0
314,314,Kbc Zemun,,44.8403405,20.4070783,1,,0,,,0
315,315,Prilaz,,44.8414886,20.4032747,1,,0,,,0
316,316,Prilaz,,44.8416465,20.4045823,1,,0,,,0
317,317,Zlatiborska,,44.8411741,20.3959431,1,,0,,,0
318,318,Zlatiborska,,44.8410425,20.3955112,1,,0,,,0
319,319,Bosanska,,44.841504,20.389533,1,,0,,,0
320,320,Bosanska,,44.8412181,20.3907157,1,,0,,,0
321,321,Rada Končara,,44.8422838,20.3835027,1,,0,,,0
322,322,Rada Končara,,44.841913,20.3854949,1,,0,,,0
323,323,Prvomajska,,44.8429732,20.3795756,1,,0,,,0
324,324,Prvomajska,,44.8426785,20.3797718,1,,0,,,0
325,325,Vojni Put,,44.8414304,20.3762482,1,,0,,,0
326,326,Vojni Put,,44.8425306,20.3766551,1,,0,,,0
327,327,Branko Plećaš,,44.8396506,20.3742519,1,,0,,,0
328,328,Branko Plećaš,,44.8396943,20.375907,1,,0,,,0
329,329,Oš Gavrilo Princip,,44.8400502,20.3712034,1,,0,,,0
330,330,Oš Gavrilo Princip,,44.8398999,20.3716769,1,,0,,,0
331,331,Beogradska Arena /Španskih Boraca/,,44.8129921,20.4184316,1,,0,,,0
332,332,Antifašističke Borbe,,44.8149476,20.4245383,1,,0,,,0
333,333,Zemun /Novi Grad/,,44.8420926,20.3689475,1,,0,,,0
334,334,Karaburma 2,,44.8073301,20.5219058,1,,0,,,0
335,335,Salvadora Aljendea,,44.8103019,20.5220863,1,,0,,,0
336,336,Salvadora Aljendea,,44.8105123,20.521816,1,,0,,,0
337,337,Husinjskih Rudara,,44.8130068,20.51768,1,,0,,,0
338,338,Husinjskih Rudara,,44.8127286,20.5180616,1,,0,,,0
339,339,Stevana Hristića,,44.8130856,20.5138823,1,,0,,,0
340,340,Stevana Hristića,,44.8130279,20.5130464,1,,0,,,0
341,341,Diljska,,44.813208,20.5103101,1,,0,,,0
342,342,Diljska,,44.813106,20.5109587,1,,0,,,0
343,343,Patrisa Lumumbe,,44.8147957,20.5062503,1,,0,,,0
344,344,Patrisa Lumumbe,,44.8146752,20.5062415,1,,0,,,0
345,345,Vojvode Micka Krstića,,44.8176973,20.5010457,1,,0,,,0
346,346,Vuka Vrčevića,,44.817949,20.4966382,1,,0,,,0
347,347,Vuka Vrčevića,,44.8176859,20.4955529,1,,0,,,0
348,348,Pančevački Most,,44.8181122,20.4879201,1,,0,,,0
349,349,Pančevački Most,,44.8178693,20.4885237,1,,0,,,0
350,350,Czk Vlada Divljan,,44.8177692,20.4848421,1,,0,,,0
351,351,Czk Vlada Divljan,,44.8174398,20.4831588,1,,0,,,0
352,352,Jovana Avakumovića,,44.8173983,20.4793919,1,,0,,,0
353,353,Cvijićeva,,44.8172447,20.4758144,1,,0,,,0
354,354,Cvijićeva,,44.817132,20.47775,1,,0,,,0
355,355,Džordža Vašingtona,,44.8169862,20.4698272,1,,0,,,0
356,356,Džordža Vašingtona,,44.8168481,20.4700165,1,,0,,,0
357,357,Skadarska,,44.8166403,20.463641,1,,0,,,0
358,358,Dom Omladine,,44.8154605,20.4624558,1,,0,,,0
359,359,Zeleni Venac,,44.8145445,20.4568568,1,,0,,,0
360,360,Zeleni Venac,,44.814336,20.4569213,1,,0,,,0
361,361,Brankov Most,,44.8152343,20.4520847,1,,0,,,0
362,362,Šest Kaplara,,44.8153352,20.4334052,1,,0,,,0
363,363,Šest Kaplara,,44.8145062,20.4354657,1,,0,,,0
364,364,Palata Srbija,,44.8170229,20.4295846,1,,0,,,0
365,365,Palata Srbija,,44.8170952,20.4287832,1,,0,,,0
366,366,Španskih Boraca,,44.8198273,20.4233328,1,,0,,,0
367,367,Španskih Boraca,,44.8195995,20.4232095,1,,0,,,0
368,368,Blok 30,,44.8228957,20.4165033,1,,0,,,0
369,369,Blok 30,,44.8216736,20.4186039,1,,0,,,0
370,370,Go Novi Beograd,,44.8235746,20.4143783,1,,0,,,0
371,371,Arhiv,,44.8256565,20.4128744,1,,0,,,0
372,372,Arhiv,,44.8269855,20.4120413,1,,0,,,0
373,373,Bulevar Maršala Tolbuhina,,44.8293228,20.4116068,1,,0,,,0
374,374,Bulevar Maršala Tolbuhina,,44.8297399,20.4111151,1,,0,,,0
375,375,Antifašističke Borbe,,44.8138682,20.4258548,1,,0,,,0
376,376,Beogradska Arena,,44.8168628,20.4203545,1,,0,,,0
377,377,Novi Beograd /Paviljoni/,,44.8305079,20.4055533,1,,0,,,0
378,378,Novi Beograd /Paviljoni/,,44.830254,20.4043134,1,,0,,,0
379,379,Konjarnik,,44.7824215,20.5098746,1,,0,,,0
380,380,Šumice,,44.7837077,20.4998183,1,,0,,,0
381,381,Hotel Srbija,,44.7841873,20.4936461,1,,0,,,0
382,382,Hotel Srbija,,44.7839778,20.4961917,1,,0,,,0
383,383,Grčića Milenka,,44.7844328,20.4863685,1,,0,,,0
384,384,Grčića Milenka,,44.7842538,20.4867962,1,,0,,,0
385,385,Dušanovac /Pošta/,,44.7848255,20.4812425,1,,0,,,0
386,386,Dušanovac /Pošta/,,44.7864103,20.4799512,1,,0,,,0
387,387,Beogradska Arena /Antifašističke Borbe/,,44.8110829,20.4226044,1,,0,,,0
388,388,Dom Zdravlja Voždovac,,44.7877078,20.4737303,1,,0,,,0
389,389,Stratimirovićeva,,44.7879067,20.475606,1,,0,,,0
390,390,Južni Bulevar,,44.7913893,20.4686238,1,,0,,,0
391,391,Franše Deperea,,44.7909552,20.4681464,1,,0,,,0
392,392,Franše Deperea,,44.7915037,20.4664557,1,,0,,,0
393,393,Deligradska,,44.7958451,20.4574433,1,,0,,,0
394,394,Deligradska,,44.7953523,20.4574215,1,,0,,,0
395,395,Mostar,,44.797863,20.4506391,1,,0,,,0
396,396,Mostar,,44.7975243,20.4506377,1,,0,,,0
397,397,Sava Centar,,44.8077346,20.4311792,1,,0,,,0
398,398,Sava Centar,,44.8071649,20.4311149,1,,0,,,0
399,399,Omladinskih Brigada,,44.8174157,20.4100599,1,,0,,,0
400,400,Omladinskih Brigada,,44.8168683,20.4099511,1,,0,,,0
401,401,Bulevar Zorana Đinđića,,44.8201252,20.4096032,1,,0,,,0
402,402,Bulevar Zorana Đinđića,,44.8203822,20.4094923,1,,0,,,0
403,403,Go Novi Beograd,,44.823441,20.412715,1,,0,,,0
404,404,Go Novi Beograd,,44.8233978,20.4121917,1,,0,,,0
405,405,Džona Kenedija,,44.8342995,20.4099279,1,,0,,,0
406,406,Džona Kenedija,,44.8340064,20.4096856,1,,0,,,0
407,407,Prve Pruge - Retenzija,,44.836868,20.410649,1,,0,,,0
408,408,Poljoprivredni Fakultet,,44.839446,20.412962,1,,0,,,0
409,409,22. Oktobra,,44.837868,20.411235,1,,0,,,0
410,410,Zemun /Pošta/,,44.842241,20.41333,1,,0,,,0
411,411,Zemun /Pošta/,,44.8407785,20.4142829,1,,0,,,0
412,412,Rk Beograd,,44.8435073,20.4120674,1,,0,,,0
413,413,Trg Branka Radičevića,,44.8461271,20.409522,1,,0,,,0
414,414,Trg Branka Radičevića,,44.8464223,20.4085402,1,,0,,,0
415,415,Nade Dimić,,44.8491997,20.4028221,1,,0,,,0
416,416,Nade Dimić,,44.8491959,20.4024756,1,,0,,,0
417,417,Dunavska,,44.8510632,20.3977629,1,,0,,,0
418,418,Dunavska,,44.851258,20.3969028,1,,0,,,0
419,419,Tršćanska,,44.8538513,20.3904097,1,,0,,,0
420,420,Tršćanska,,44.8531657,20.3918462,1,,0,,,0
421,421,Filipa Višnjića,,44.8553205,20.3866105,1,,0,,,0
422,422,Filipa Višnjića,,44.8546974,20.3876989,1,,0,,,0
423,423,Ruska,,44.8579024,20.380849,1,,0,,,0
424,424,Ruska,,44.8573199,20.3817836,1,,0,,,0
425,425,Zemun /Gornji Grad/,,44.8593805,20.3781772,1,,0,,,0
426,426,Vojislava Ilića,,44.7719088,20.5041951,1,,0,,,0
427,427,Vojislava Ilića,,44.7717421,20.5042883,1,,0,,,0
428,428,Zaplanjska,,44.7688465,20.5005303,1,,0,,,0
429,429,Zaplanjska,,44.7685682,20.5006999,1,,0,,,0
430,430,Naselje Braće Jerković,,44.7650461,20.4997209,1,,0,,,0
431,431,Naselje Braće Jerković,,44.7657541,20.5002113,1,,0,,,0
432,432,Braće Jerković (Mitrovo Brdo),,44.7631738,20.4974613,1,,0,,,0
433,433,Braće Jerković (Mitrovo Brdo),,44.763638,20.498616,1,,0,,,0
434,434,Beogradska Arena,,44.815775,20.4216954,1,,0,,,0
435,435,Bulevar Umetnosti,,44.8186313,20.415466,1,,0,,,0
436,436,Sc Sport Eko,,44.764682,20.4929544,1,,0,,,0
437,437,Sc Sport Eko,,44.764018,20.493556,1,,0,,,0
438,438,Jovana Bijelića,,44.7680214,20.4901063,1,,0,,,0
439,439,Jovana Bijelića,,44.7685137,20.4896266,1,,0,,,0
440,440,Meštrovićeva,,44.7711968,20.4880744,1,,0,,,0
441,441,Meštrovićeva,,44.7717869,20.4875265,1,,0,,,0
442,442,Darvinova,,44.7728991,20.4822534,1,,0,,,0
443,443,Darvinova,,44.771569,20.483153,1,,0,,,0
444,444,Bjelovarska,,44.775943,20.481288,1,,0,,,0
445,445,Bjelovarska,,44.7760161,20.4812592,1,,0,,,0
446,446,Vitanovačka,,44.7791162,20.4797293,1,,0,,,0
447,447,Vitanovačka,,44.7795707,20.4792842,1,,0,,,0
448,448,Ljubićka (Univerzitet Singidunum),,44.7829127,20.4771723,1,,0,,,0
449,449,Ljubićka (Univerzitet Singidunum),,44.7825713,20.4773245,1,,0,,,0
450,450,Prešernova,,44.7859552,20.4731015,1,,0,,,0
451,451,Prešernova,,44.7852941,20.4741588,1,,0,,,0
452,452,Trg Oslobođenja,,44.7877401,20.4662738,1,,0,,,0
453,453,Omladinskih Brigada 1,,44.8156299,20.4039334,1,,0,,,0
454,454,Ulaz U Pariske Komune,,44.8249311,20.4118497,1,,0,,,0
455,455,Fontana,,44.8267445,20.4075088,1,,0,,,0
456,456,Fontana,,44.8256816,20.4095213,1,,0,,,0
457,457,Ix Beogradska Gimnazija,,44.8293993,20.4011517,1,,0,,,0
458,458,Ix Beogradska Gimnazija,,44.8287987,20.4020837,1,,0,,,0
459,459,Pariske  Komune,,44.8317054,20.4001059,1,,0,,,0
460,460,Pariske  Komune,,44.8312652,20.3997695,1,,0,,,0
461,461,Paviljoni,,44.8352073,20.4015593,1,,0,,,0
462,462,Paviljoni,,44.8353582,20.4014664,1,,0,,,0
463,463,Prilaz,,44.8404143,20.4037168,1,,0,,,0
464,464,Mirijevo 3,,44.7936472,20.5366723,2,,0,,,0
465,465,Mirijevo 3,,44.7939456,20.5368794,2,,0,,,0
466,466,13. Maj /Ulaz/,,44.88366,20.33956,2,,0,,,0
467,467,Pijaca,,44.72703,20.373222,2,,0,,,0
468,468,Semjuela Beketa,,44.790558,20.5405299,2,,0,,,0
469,469,Semjuela Beketa,,44.7906466,20.5406257,2,,0,,,0
470,470,Matice Srpske,,44.7899445,20.5380921,2,,0,,,0
471,471,Matice Srpske,,44.7899709,20.5385369,2,,0,,,0
472,472,Branka Ćopića,,44.7874241,20.5367041,2,,0,,,0
473,473,Branka Ćopića,,44.7877091,20.5370552,2,,0,,,0
474,474,16. Oktobra,,44.7865548,20.5305233,2,,0,,,0
475,475,16. Oktobra,,44.7864804,20.5309896,2,,0,,,0
476,476,Vitezova Karađorđeve Zvezde,,44.7911071,20.5240195,1,,0,,,0
477,477,Vitezova Karađorđeve Zvezde,,44.7908292,20.5254536,1,,0,,,0
478,478,Savski Trg (Savska),,44.80691,20.455408,1,,0,,,0
479,479,Mite Ružića,,44.7913857,20.5144222,1,,0,,,0
480,480,Bulevar Kralja Aleksandra,,44.783992,20.5174953,1,,0,,,0
481,481,Bulevar Kralja Aleksandra,,44.7838181,20.5174399,1,,0,,,0
482,482,Milutina Milankovića,,44.8072274,20.4222513,1,,0,,,0
483,483,Rudo,,44.785033,20.513868,1,,0,,,0
484,484,Rudo,,44.7842267,20.5138534,1,,0,,,0
485,485,Budvanska,,44.7858741,20.5112702,1,,0,,,0
486,486,Budvanska,,44.7856993,20.5108272,1,,0,,,0
487,487,Učiteljsko Naselje,,44.7850744,20.5071519,1,,0,,,0
488,488,Učiteljsko Naselje,,44.7850849,20.5076443,1,,0,,,0
489,489,Dr Velizara Kosanovića,,44.7882477,20.5052906,1,,0,,,0
490,490,Karaburma 2,,44.8069248,20.5221477,1,,0,,,0
491,491,Peta Ekonomska,,44.7570519,20.4565505,1,,0,,,0
492,492,Cvijićeva,,44.8159993,20.4760864,1,,0,,,0
493,493,Mostar,,44.7988326,20.4491565,1,,0,,,0
494,494,Mostar,,44.7982204,20.4488814,1,,0,,,0
495,495,Sajam,,44.7965184,20.4415564,1,,0,,,0
496,496,Sajam,,44.7964066,20.4420988,1,,0,,,0
497,497,Ruska,,44.7951276,20.4358911,1,,0,,,0
498,498,Ruska,,44.7953388,20.4382263,1,,0,,,0
499,499,Gospodarska Mehana,,44.794467,20.433516,1,,0,,,0
500,500,Petlja Radnička,,44.792457,20.426729,1,,0,,,0
501,501,Petlja Radnička,,44.792212,20.427139,1,,0,,,0
502,502,Ada Ciganlija,,44.7886632,20.4192967,1,,0,,,0
503,503,Ada Ciganlija,,44.7885308,20.4200252,1,,0,,,0
504,504,Kirovljeva,,44.7836309,20.4177877,1,,0,,,0
505,505,Kirovljeva,,44.7848319,20.4179407,1,,0,,,0
506,506,Petra Lekovića,,44.7712629,20.4169694,1,,0,,,0
507,507,Petra Lekovića,,44.7713974,20.417074,1,,0,,,0
508,508,Žarkovačka,,44.7681045,20.4197922,1,,0,,,0
509,509,Žarkovačka,,44.7679514,20.4204138,1,,0,,,0
510,510,Sc  Košutnjak,,44.7643033,20.4279745,1,,0,,,0
511,511,Sc  Košutnjak,,44.7640738,20.4286656,1,,0,,,0
512,512,Pionirski Grad,,44.7594127,20.4328095,2,,0,,,0
513,513,Pionirski Grad,,44.7597628,20.4326446,2,,0,,,0
514,514,Luke Vojvodića,,44.7517698,20.4347266,2,,0,,,0
515,515,Luke Vojvodića,,44.7519899,20.4352034,2,,0,,,0
516,516,Miloja Zakića,,44.7503598,20.4331294,2,,0,,,0
517,517,Miloja Zakića,,44.7501493,20.4330964,2,,0,,,0
518,518,Ratka Mitrovića,,44.7483341,20.4308297,2,,0,,,0
519,519,Ratka Mitrovića,,44.7480558,20.4307261,2,,0,,,0
520,520,Pilota Mihajla Petrovića,,44.742673,20.424408,2,,0,,,0
521,521,Pilota Mihajla Petrovića,,44.7441919,20.4258075,2,,0,,,0
522,522,Mz Vidikovac,,44.7402545,20.4226335,2,,0,,,0
523,523,Mz Vidikovac,,44.7405106,20.4231855,2,,0,,,0
524,524,Vidikovački Venac,,44.7385005,20.4199622,2,,0,,,0
525,525,Vidikovački Venac,,44.7391168,20.4209972,2,,0,,,0
526,526,Toplana,,44.7336958,20.4206416,2,,0,,,0
527,527,Toplana,,44.7345939,20.4205813,2,,0,,,0
528,528,Vidikovac,,44.7318155,20.4204534,2,,0,,,0
529,529,Dorćol /Src Milan Gale Muškatirović/,,44.829826,20.456219,1,,0,,,0
530,530,Dušanova,,44.8194836,20.4652579,1,,0,,,0
531,531,Dušanova,,44.8190184,20.4647196,1,,0,,,0
532,532,Trg Republike,,44.815254,20.460356,1,,0,,,0
533,533,Trg Republike,,44.815426,20.460629,1,,0,,,0
534,534,Resavska,,44.8090817,20.4681338,1,,0,,,0
535,535,Glavna Pošta,,44.8100257,20.4671065,1,,0,,,0
536,536,Tašmajdan,,44.8080071,20.469022,1,,0,,,0
537,537,Tašmajdan,,44.8074422,20.4704006,1,,0,,,0
538,538,Cvetni Trg,,44.8048644,20.4668799,1,,0,,,0
539,539,Cvetni Trg,,44.804669,20.4673904,1,,0,,,0
540,540,Smiljanićeva,,44.8027952,20.4702699,1,,0,,,0
541,541,Smiljanićeva,,44.803103,20.4699829,1,,0,,,0
542,542,Bebelova,,44.7589284,20.4835177,1,,0,,,0
543,543,Bebelova,,44.758677,20.4833145,1,,0,,,0
544,544,Internacionalnih Brigada,,44.794713,20.4736858,1,,0,,,0
545,545,Neimar,,44.7940537,20.4732003,1,,0,,,0
546,546,Trg Republike,,44.8167296,20.4610996,1,,0,,,0
547,547,Karaburma 2,,44.8071294,20.5221709,1,,0,,,0
548,548,Src Makiš,,44.7849538,20.4062191,1,,0,,,0
549,549,Sup Palilula,,44.8171494,20.4937041,1,,0,,,0
550,550,Omladinski Stadion,,44.8140512,20.4901399,1,,0,,,0
551,551,Dalmatinska,,44.8071789,20.4805108,1,,0,,,0
552,552,Zemun (Novi Grad),,44.842156,20.3690196,2,,0,,,0
553,553,Dalmatinska,,44.8068004,20.4802449,1,,0,,,0
554,554,Blok 42,,44.8047019,20.417489,1,,0,,,0
555,555,"Pijaca ""Kalenić""",,44.7989795,20.4764307,1,,0,,,0
556,556,"Pijaca ""Kalenić""",,44.8008945,20.4770233,1,,0,,,0
557,557,Južni Bulevar,,44.7938406,20.4781533,1,,0,,,0
558,558,Južni Bulevar,,44.7930971,20.4783705,1,,0,,,0
559,559,Tetovska,,44.7894502,20.4805287,1,,0,,,0
560,560,Tetovska,,44.7901972,20.479992,1,,0,,,0
561,561,Dušanovac /Pošta/,,44.7859242,20.4821886,1,,0,,,0
562,562,Dušanovac /Pošta/,,44.7860323,20.4824242,1,,0,,,0
563,563,Husova,,44.7839972,20.4804305,1,,0,,,0
564,564,Husova,,44.7839351,20.4796962,1,,0,,,0
565,565,Pive Karamatijevića,,44.7658909,20.4913365,1,,0,,,0
566,566,Pive Karamatijevića,,44.7662356,20.4912648,1,,0,,,0
567,567,Voždovački Kružni Put,,44.762664,20.4901982,1,,0,,,0
568,568,Voždovački Kružni Put,,44.7626289,20.4905474,1,,0,,,0
569,569,Preduzeće Izolacija,,44.7592287,20.4941196,2,,0,,,0
570,570,Preduzeće Izolacija,,44.7598547,20.4937415,2,,0,,,0
571,571,Preduzeće Petar Velebit,,44.7561171,20.4974264,2,,0,,,0
572,572,Preduzeće Petar Velebit,,44.7565658,20.4972588,2,,0,,,0
573,573,Dušana Jovanovića ,,44.7539353,20.5000091,2,,0,,,0
574,574,Dušana Jovanovića ,,44.754257,20.4999568,2,,0,,,0
575,575,Put Za Kumodraško Groblje,,44.751807,20.5027088,2,,0,,,0
576,576,Put Za Kumodraško Groblje,,44.7524454,20.5021844,2,,0,,,0
577,577,Junska,,44.750033,20.500829,2,,0,,,0
578,578,Junska,,44.7500718,20.5011959,2,,0,,,0
579,579,Kumodraž 2,,44.7486843,20.4977415,2,,0,,,0
580,580,Kumodraž 2,,44.7488951,20.498781,2,,0,,,0
581,581,Studentski Trg,,44.8180342,20.4585599,1,,0,,,0
582,582,Pravni Fakultet,,44.8067733,20.4720613,1,,0,,,0
583,583,Pravni Fakultet,,44.8069763,20.4722237,1,,0,,,0
584,584,Tehnički Fakulteti,,44.8052785,20.475596,1,,0,,,0
585,585,Tehnički Fakulteti,,44.8052762,20.4762238,1,,0,,,0
586,586,Go Vračar,,44.8012551,20.4757195,1,,0,,,0
587,587,Miška Jovanovića,,44.7827495,20.4817932,1,,0,,,0
588,588,Miška Jovanovića,,44.7825046,20.4823354,1,,0,,,0
589,589,Peke Pavlovića,,44.7809349,20.4863151,1,,0,,,0
590,590,Peke Pavlovića,,44.78114,20.4859092,1,,0,,,0
591,591,Ignjata Joba,,44.7771267,20.4885356,1,,0,,,0
592,592,Ignjata Joba,,44.7776183,20.488299,1,,0,,,0
593,593,Centralno Groblje,,44.7743365,20.4917754,1,,0,,,0
594,594,Centralno Groblje,,44.7752847,20.4908486,1,,0,,,0
595,595,Jovana Bijelića,,44.7709665,20.493626,1,,0,,,0
596,596,Jovana Bijelića,,44.7720116,20.4932356,1,,0,,,0
597,597,Dragice Končar 1,,44.7698892,20.4963131,1,,0,,,0
598,598,Dragice Končar 1,,44.7698639,20.4965897,1,,0,,,0
599,599,Dragice Končar,,44.7681744,20.4997728,1,,0,,,0
600,600,Dragice Končar,,44.7684474,20.4993534,1,,0,,,0
601,601,Naselje Braće Jerković,,44.7646907,20.4995894,1,,0,,,0
602,602,Naselje Braće Jerković,,44.7653701,20.5002186,1,,0,,,0
603,603,Trg Republike,,44.8167591,20.4611689,1,,0,,,0
604,604,Milutina Milankovića,,44.8064941,20.4229915,1,,0,,,0
605,605,Nedeljka Gvozdenovića,,44.80747,20.362218,1,,0,,,0
606,606,Generala Aračića,,44.8138274,20.4972314,1,,0,,,0
607,607,Generala Aračića,,44.8140048,20.4964464,1,,0,,,0
608,608,Marijane Gregoran,,44.8133866,20.5002545,1,,0,,,0
609,609,Marijane Gregoran,,44.8133957,20.5005623,1,,0,,,0
610,610,Triglavska,,44.8116733,20.5069528,1,,0,,,0
611,611,Triglavska,,44.8118287,20.5068706,1,,0,,,0
612,612,Astronomska,,44.8080691,20.513938,1,,0,,,0
613,613,Astronomska,,44.8080102,20.5141904,1,,0,,,0
614,614,Ćalije,,44.805509,20.5172284,1,,0,,,0
615,615,Ćalije,,44.8049435,20.5179149,1,,0,,,0
616,616,Sime Trojanovića,,44.8019374,20.5194347,1,,0,,,0
617,617,Sime Trojanovića,,44.8023658,20.5194147,1,,0,,,0
618,618,Ladne Vode,,44.7943572,20.5235102,1,,0,,,0
619,619,Ladne Vode,,44.7952564,20.5231348,1,,0,,,0
620,620,Vitezova Karađorđeve Zvezde,,44.7925758,20.5246645,1,,0,,,0
621,621,Vitezova Karađorđeve Zvezde,,44.7925739,20.525188,1,,0,,,0
622,622,Selište,,44.7901292,20.5275078,2,,0,,,0
623,623,Selište,,44.7906823,20.5276567,2,,0,,,0
624,624,Stojčino Brdo,,44.7892596,20.5309136,2,,0,,,0
625,625,Stojčino Brdo,,44.7894304,20.5300284,2,,0,,,0
626,626,Mirijevski Venac,,44.789526,20.5336256,2,,0,,,0
627,627,Mirijevski Venac,,44.7894206,20.5332865,2,,0,,,0
628,628,Mirijevo 2,,44.7912061,20.5331664,2,,0,,,0
629,629,Mirijevo 2,,44.7913107,20.5328756,2,,0,,,0
630,630,Mirijevo,,44.793798,20.5316637,2,,0,,,0
632,632,Omladinski Stadion,,44.8154067,20.4911699,1,,0,,,0
633,633,Aleksandra Belića,,44.7885013,20.5443063,2,,0,,,0
634,634,Aleksandra Belića,,44.7888178,20.5434897,2,,0,,,0
635,635,Milivoja Perovića,,44.787672,20.5464131,2,,0,,,0
636,636,Mirijevo 4,,44.7859549,20.5459943,2,,0,,,0
637,637,Mirijevo 4,,44.786038,20.545661,2,,0,,,0
638,638,Birčaninova,,44.800703,20.465475,1,,0,,,0
639,639,Franše Deperea,,44.7928916,20.4666329,1,,0,,,0
640,640,Južni Bulevar,,44.7906968,20.4698737,1,,0,,,0
641,641,Stratimirovićeva,,44.7895103,20.4720021,1,,0,,,0
642,642,Go Voždovac,,44.7872705,20.4781826,1,,0,,,0
643,643,Dušanovac /Pošta/,,44.7860235,20.4813998,1,,0,,,0
644,644,Katarine Ivanović,,44.7783633,20.4897689,1,,0,,,0
645,645,Katarine Ivanović,,44.7786479,20.4892005,1,,0,,,0
646,646,Umljenovićeva,,44.7770249,20.4938081,1,,0,,,0
647,647,Umljenovićeva,,44.777583,20.4937994,1,,0,,,0
648,648,Medaković 2,,44.7751731,20.4979736,1,,0,,,0
649,649,Medaković 2,,44.7754026,20.4984676,1,,0,,,0
650,650,Studentski Trg,,44.8194912,20.4570246,1,,0,,,0
651,651,Mz Makiš,,44.7708556,20.3619025,2,,0,,,0
652,652,Mz Makiš,,44.7709295,20.3623122,2,,0,,,0
653,653,Dom Zdravlja Voždovac,,44.7839795,20.4919064,1,,0,,,0
654,654,Vukov Spomenik,,44.8048058,20.4795731,1,,0,,,0
655,655,Vojvode Micka Krstića,,44.8176139,20.5029607,1,,0,,,0
656,656,Vojvode Micka Krstića,,44.8178861,20.5028059,1,,0,,,0
657,657,Diljska,,44.817401,20.5110422,1,,0,,,0
658,658,Diljska,,44.8177121,20.5095702,1,,0,,,0
659,659,Put Za Adu Huju,,44.8174651,20.5143129,1,,0,,,0
660,660,Put Za Adu Huju,,44.8176663,20.5139665,1,,0,,,0
661,661,Mirijevski Bulevar,,44.817457,20.5197072,1,,0,,,0
662,662,Mirijevski Bulevar,,44.8177404,20.5193263,1,,0,,,0
663,663,Rospi Ćuprija,,44.8181246,20.5236641,2,,0,,,0
664,664,Rospi Ćuprija,,44.8179974,20.5217595,2,,0,,,0
665,665,Marina,,44.8187948,20.5265301,2,,0,,,0
666,666,Marina,,44.8189258,20.5267459,2,,0,,,0
667,667,Višnjička Banja,,44.8215448,20.5367952,2,,0,,,0
668,668,Višnjička Banja,,44.8218907,20.5372008,2,,0,,,0
669,669,Despotovačka,,44.8242885,20.5411132,2,,0,,,0
670,670,Despotovačka,,44.8246593,20.5413311,2,,0,,,0
671,671,Lovačka,,44.8272108,20.543968,2,,0,,,0
672,672,Lovačka,,44.8276283,20.5441431,2,,0,,,0
673,673,Višnjica,,44.8308667,20.5482494,2,,0,,,0
674,674,Trg Republike,,44.8166002,20.4608701,1,,0,,,0
675,675,Agro-Koka,,44.885416,20.517165,2,,0,,,0
676,676,Milića Marinovića,,44.7553439,20.4900586,2,,0,,,0
677,677,Milića Marinovića,,44.7560822,20.4891314,2,,0,,,0
678,678,Beranska,,44.7524334,20.4922966,2,,0,,,0
679,679,Beranska,,44.7536477,20.4917192,2,,0,,,0
680,680,Kalemarska,,44.7418986,20.5001703,2,,0,,,0
681,681,Kumodraž 2,,44.7487096,20.4953619,2,,0,,,0
682,682,Institut Torlak,,44.7456243,20.4974992,2,,0,,,0
683,683,Institut Torlak,,44.7460653,20.4973412,2,,0,,,0
684,684,Oktobarska,,44.7398335,20.5026407,2,,0,,,0
685,685,Oktobarska,,44.7405214,20.501638,2,,0,,,0
686,686,Palih Boraca,,44.7173302,20.4483386,2,,0,,,0
687,687,Src Makiš,,44.7850553,20.4056533,1,,0,,,0
688,688,Mz Kumodraž,,44.7390216,20.5075537,2,,0,,,0
689,689,Mz Kumodraž,,44.7389765,20.5069036,2,,0,,,0
690,690,Zemljoradnička,,44.7398848,20.5104219,2,,0,,,0
691,691,Zemljoradnička,,44.7397497,20.5100868,2,,0,,,0
692,692,Kovačka,,44.7413576,20.5135399,2,,0,,,0
693,693,Kovačka,,44.7413493,20.5127745,2,,0,,,0
694,694,Kumodraž 1,,44.742094,20.515764,2,,0,,,0
695,695,Kumodraž 1,,44.7426091,20.5159225,2,,0,,,0
696,696,Sp Lasta,,44.7721637,20.5188017,2,,0,,,0
697,697,Šesti Prilaz,,44.8648147,20.4429809,2,,0,,,0
698,698,Vojvode Dobrnjca,,44.8197655,20.4726685,1,,0,,,0
699,699,Vojvode Dobrnjca,,44.8194821,20.4742116,1,,0,,,0
700,700,Gundulićev Venac,,44.8200292,20.4703998,1,,0,,,0
701,701,Gundulićev Venac,,44.8199777,20.4699327,1,,0,,,0
702,702,Trg Republike,,44.816311,20.460943,1,,0,,,0
703,703,Pionirski Park,,44.8109786,20.4651204,1,,0,,,0
704,704,Pionirski Park,,44.812148,20.4640358,1,,0,,,0
705,705,Voždovac,,44.761061,20.4848131,1,,0,,,0
706,706,Palata Pravde,,44.8042803,20.4530846,1,,0,,,0
707,707,Bulevar Umetnosti,,44.819998,20.4134687,1,,0,,,0
708,708,Milivoja Perovića,,44.7884994,20.5461042,2,,0,,,0
709,709,Žel. St. Dunav -Okretnica,,44.8188181,20.4798844,1,,0,,,0
712,712,Luka Beograd,,44.8245064,20.4723281,1,,0,,,0
713,713,Tempo,,44.823467,20.4850109,1,,0,,,0
714,714,Knežopoljska,,44.8213086,20.4770949,1,,0,,,0
715,715,Knežopoljska,,44.8214691,20.477491,1,,0,,,0
716,716,Viline Vode,,44.8213535,20.4853486,1,,0,,,0
717,717,Viline Vode,,44.821472,20.4843004,1,,0,,,0
718,718,Klanički Kej,,44.8213393,20.4883999,1,,0,,,0
719,719,Klanički Kej,,44.8214505,20.4891967,1,,0,,,0
720,720,Železnička Stanica Dunav,,44.8190574,20.4815037,1,,0,,,0
721,721,Železnička Stanica Dunav,,44.81922,20.479554,1,,0,,,0
722,722,Julino Brdo,,44.7624737,20.4140289,2,,0,,,0
723,723,Julino Brdo,,44.7637564,20.4138667,2,,0,,,0
724,724,Žarkovo,,44.7586385,20.4165381,2,,0,,,0
725,725,Žarkovo,,44.759618,20.415433,2,,0,,,0
726,726,Ace Joksimovića,,44.7566044,20.420245,2,,0,,,0
727,727,Ace Joksimovića,,44.7571394,20.4194042,2,,0,,,0
728,728,Ratka Mitrovića,,44.7528262,20.4251557,2,,0,,,0
729,729,Ratka Mitrovića,,44.754037,20.4240277,2,,0,,,0
730,730,Kneza Višeslava,,44.7478628,20.429898,2,,0,,,0
731,731,Kneza Višeslava,,44.7482932,20.4296513,2,,0,,,0
732,732,Pilota Mihajla Petrovića,,44.7430213,20.4263376,2,,0,,,0
733,733,Mirijevo 3,,44.7937508,20.5366585,2,,0,,,0
734,734,Janković Stojana,,44.744995,20.434256,2,,0,,,0
735,735,Janković Stojana,,44.7451269,20.4342108,2,,0,,,0
736,736,Marička,,44.745339,20.4382987,2,,0,,,0
737,737,Marička,,44.7454252,20.4379685,2,,0,,,0
738,738,Miška Kranjca,,44.7430251,20.4420271,2,,0,,,0
739,739,Miška Kranjca,,44.7429079,20.4427643,2,,0,,,0
740,740,Ulica Oslobođenja ,,44.7380046,20.4389012,2,,0,,,0
741,741,Ulica Oslobođenja ,,44.7381267,20.4389641,2,,0,,,0
742,742,Kralja Radoslava,,44.9004,20.27881,2,,0,,,0
743,743,Palilulska Pijaca,,44.810416,20.474482,1,,0,,,0
744,744,Šumice - Okretnica,,44.7840049,20.5003617,1,,0,,,0
745,745,Pogon Kosmaj,,44.771699,20.51796,2,,0,,,0
746,746,Franše Deperea,,44.7926283,20.4664199,1,,0,,,0
747,747,Vatrosprem,,44.764868,20.4877203,1,,0,,,0
748,748,Vatrosprem,,44.764735,20.4881694,1,,0,,,0
749,749,Cvetna,,44.7420992,20.5042851,2,,0,,,0
750,750,Kumodraž 1,,44.7441149,20.5013299,2,,0,,,0
751,751,Trg Oslobođenja,,44.7870448,20.4639596,1,,0,,,0
752,752,Trg Oslobođenja,,44.7873798,20.4644236,1,,0,,,0
753,753,Stadion Rajko Mitić,,44.7841789,20.4627107,1,,0,,,0
754,754,Stadion Rajko Mitić,,44.7831103,20.4630022,1,,0,,,0
755,755,Šekspirova,,44.7815187,20.4599303,1,,0,,,0
756,756,Narodnog Heroja Milana Tepića,,44.7796287,20.4586373,1,,0,,,0
757,757,Šolina,,44.7714815,20.454135,1,,0,,,0
758,758,Šolina,,44.7717786,20.4545064,1,,0,,,0
759,759,Baje Pivljanina,,44.7695853,20.455309,1,,0,,,0
760,760,Baje Pivljanina,,44.7695445,20.455816,1,,0,,,0
761,761,Dedinje /Ortopedska Bolnica/,,44.7668959,20.4622942,1,,0,,,0
762,762,Dedinje /Ortopedska Bolnica/,,44.7674638,20.4619944,1,,0,,,0
763,763,Šesti Prilaz,,44.8652204,20.4437049,2,,0,,,0
764,764,Blok Sutjeska,,44.8495035,20.4863742,1,,0,,,0
765,765,Partizanski Blok,,44.8459475,20.4882054,1,,0,,,0
766,766,Partizanski Blok,,44.8464523,20.4882414,1,,0,,,0
767,767,"Blok ""Branko Momirov""",,44.841079,20.4908256,1,,0,,,0
768,768,"Blok ""Branko Momirov""",,44.8414484,20.4909272,1,,0,,,0
769,769,Mz Krnjača,,44.8377902,20.4940254,1,,0,,,0
770,770,Kozjačka,,44.793744,20.4477741,1,,0,,,0
771,771,Dr Ivana Ribara,,44.7982096,20.3724116,1,,0,,,0
772,772,Blok 25,,44.8136937,20.4247301,1,,0,,,0
773,773,Topčiderska Zvezda,,44.7893974,20.4438252,1,,0,,,0
774,774,Topčiderska Zvezda,,44.7887993,20.4441808,1,,0,,,0
775,775,Vase Pelagića,,44.7890734,20.4409122,1,,0,,,0
776,776,Vase Pelagića,,44.7887687,20.4408336,1,,0,,,0
777,777,Vojislava Vučkovića,,44.7917807,20.4415174,1,,0,,,0
778,778,Vojislava Vučkovića,,44.7926263,20.4417791,1,,0,,,0
779,779,Senjačka,,44.7943832,20.4425779,1,,0,,,0
780,780,Topčidersko Brdo /Senjak/,,44.7957633,20.4430689,1,,0,,,0
781,781,Konjarnik,,44.7823519,20.510447,1,,0,,,0
782,782,Blok 45,,44.7930673,20.3750251,1,,0,,,0
783,783,Blok 45,,44.792767,20.375171,1,,0,,,0
784,784,Dr Ivana Ribara 1,,44.7959344,20.3728771,1,,0,,,0
785,785,Dr Ivana Ribara 1,,44.7967108,20.3720194,1,,0,,,0
786,786,Oš Branko Radičević,,44.7996865,20.3757433,1,,0,,,0
787,787,Oš Branko Radičević,,44.7997329,20.3749094,1,,0,,,0
788,788,Nehruova,,44.8012559,20.3800824,1,,0,,,0
789,789,Nehruova,,44.8014933,20.3796797,1,,0,,,0
790,790,Gandijeva,,44.8034199,20.3890024,1,,0,,,0
791,791,Gandijeva,,44.8033198,20.3866705,1,,0,,,0
792,792,Blok 70,,44.8040762,20.3939778,1,,0,,,0
793,793,Blok 70,,44.8043798,20.3935657,1,,0,,,0
794,794,Omladinskih Brigada,,44.8043512,20.3983119,1,,0,,,0
795,795,Omladinskih Brigada,,44.8046832,20.3980832,1,,0,,,0
796,796,Tehnička Škola Novi Beograd,,44.8089515,20.3997271,1,,0,,,0
797,797,Tehnička Škola Novi Beograd,,44.8081435,20.3990389,1,,0,,,0
798,798,Erport Siti,,44.8118706,20.4021704,1,,0,,,0
799,799,Erport Siti,,44.811176,20.4011323,1,,0,,,0
800,800,Milutina Milankovića,,44.8162542,20.4061368,1,,0,,,0
801,801,Milutina Milankovića,,44.816068,20.4055677,1,,0,,,0
802,802,Dušanova,,44.8490875,20.4017395,1,,0,,,0
803,803,Dušanova,,44.8481934,20.4031391,1,,0,,,0
804,804,Ugrinovačka,,44.8465812,20.3992346,1,,0,,,0
805,805,Ugrinovačka,,44.8460706,20.4013506,1,,0,,,0
806,806,Stadion Zemun,,44.8478069,20.3959237,1,,0,,,0
807,807,Stadion Zemun,,44.8472624,20.3969894,1,,0,,,0
808,808,Branka Pešića,,44.8494591,20.3911438,1,,0,,,0
809,809,Branka Pešića,,44.849022,20.3921519,1,,0,,,0
810,810,Filipa Višnjića,,44.8499568,20.3874237,1,,0,,,0
811,811,Filipa Višnjića,,44.8498757,20.3869352,1,,0,,,0
812,812,Rada Končara /Dom Zdravlja/,,44.8460935,20.3860977,1,,0,,,0
813,813,Rada Končara /Dom Zdravlja/,,44.8451504,20.3855219,1,,0,,,0
814,814,Oš Petar Kočić,,44.8426843,20.3848178,1,,0,,,0
815,815,Krajiška,,44.8386669,20.3835525,1,,0,,,0
816,816,Krajiška,,44.8382207,20.3836224,1,,0,,,0
817,817,Atanasija Pulje,,44.8357288,20.38196,1,,0,,,0
818,818,Železnička Stanica Zemun,,44.836638,20.3751832,1,,0,,,0
819,819,Železnička Stanica Zemun,,44.8367342,20.3749638,1,,0,,,0
820,820,Beogradska Arena,,44.8153037,20.4202702,1,,0,,,0
821,821,Beogradska Arena,,44.8144958,20.4192192,1,,0,,,0
822,822,Vidikovac,,44.732287,20.420461,2,,0,,,0
823,823,Mihajla Gavrilovića,,44.7921824,20.4715114,1,,0,,,0
824,824,Mihajla Gavrilovića,,44.7925203,20.4719894,1,,0,,,0
825,825,Maksima Gorkog,,44.793512,20.479543,1,,0,,,0
826,826,Maksima Gorkog,,44.793315,20.4764889,1,,0,,,0
827,827,Mpi,,44.7936765,20.4811182,1,,0,,,0
828,828,Đerdapska,,44.7931827,20.4850488,1,,0,,,0
829,829,Đerdapska,,44.7929631,20.4866482,1,,0,,,0
830,830,Škola Vojislav Ilić,,44.7912874,20.4967168,1,,0,,,0
831,831,Škola Vojislav Ilić,,44.791386,20.4968017,1,,0,,,0
832,832,Zvezdara,,44.7929227,20.5036879,1,,0,,,0
833,833,Zvezdara,,44.7929829,20.5034155,1,,0,,,0
834,834,Dušana Radovića,,44.7916736,20.5208994,1,,0,,,0
835,835,Dušana Radovića,,44.7918792,20.5204471,1,,0,,,0
836,836,Železnička Stanica Dunav,,44.818369,20.4800423,1,,0,,,0
837,837,Hala Aleksandar Nikolić,,44.8147376,20.4823046,1,,0,,,0
838,838,Cvijićeva,,44.811755,20.4797628,1,,0,,,0
839,839,Cvijićeva,,44.8118016,20.4801512,1,,0,,,0
840,840,27. Marta,,44.8101597,20.4763353,1,,0,,,0
841,841,27. Marta,,44.8098066,20.4759611,1,,0,,,0
842,842,Pravni Fakultet,,44.8077555,20.4721031,1,,0,,,0
843,843,Kosmajska,,44.71509,20.32267,2,,0,,,0
844,844,Blok 25,,44.8128615,20.423643,1,,0,,,0
845,845,Trg Oslobođenja,,44.7850675,20.4657995,1,,0,,,0
846,846,Trg Oslobođenja,,44.7870622,20.4659346,1,,0,,,0
847,847,Veljka Lukića Kurjaka,,44.7794098,20.4685478,1,,0,,,0
848,848,Veljka Lukića Kurjaka,,44.780183,20.4683487,1,,0,,,0
849,849,Atletska Dvorana,,44.77631,20.472644,1,,0,,,0
850,850,Atletska Dvorana,,44.7776122,20.4716482,1,,0,,,0
851,851,Fakultet Organizacionih Nauka,,44.7704322,20.4759382,1,,0,,,0
852,852,Fakultet Organizacionih Nauka,,44.7713484,20.4756766,1,,0,,,0
853,853,Crkva Sv. Vasilija Ostroškog,,44.7623852,20.4792343,1,,0,,,0
854,854,Crkva Sv. Vasilija Ostroškog,,44.7623237,20.4796278,1,,0,,,0
855,855,Paunova,,44.761167,20.474962,1,,0,,,0
856,856,Paunova,,44.7609453,20.4769771,1,,0,,,0
857,857,Pet Solitera,,44.7594333,20.4729718,1,,0,,,0
858,858,Pet Solitera,,44.7600233,20.4731316,1,,0,,,0
859,859,Mosorska,,44.7652257,20.4779272,1,,0,,,0
860,860,Mosorska,,44.7656752,20.4780828,1,,0,,,0
861,861,Raška,,44.754654,20.468089,1,,0,,,0
862,862,Raška,,44.754495,20.470122,1,,0,,,0
863,863,Pere Velimirovića,,44.7571917,20.4599943,1,,0,,,0
864,864,Pere Velimirovića,,44.7570731,20.4612479,1,,0,,,0
865,865,Srpskih Udarnih Brigada,,44.7540283,20.4560627,2,,0,,,0
866,866,Srpskih Udarnih Brigada,,44.7549261,20.4571937,2,,0,,,0
867,867,Kanarevo Brdo,,44.7520267,20.4550904,2,,0,,,0
868,868,Kanarevo Brdo,,44.7528769,20.4553038,2,,0,,,0
869,869,Vareška,,44.7498179,20.4557271,2,,0,,,0
870,870,Vareška,,44.7489923,20.4557395,2,,0,,,0
871,871,Stanka Paunovića,,44.7484724,20.4521663,2,,0,,,0
872,872,Stanka Paunovića,,44.7484733,20.4535246,2,,0,,,0
873,873,Miljakovac 1,,44.7482174,20.4495814,2,,0,,,0
874,874,Miljakovac 1,,44.74815,20.450059,2,,0,,,0
875,875,Go Rakovica,,44.7437088,20.4460663,2,,0,,,0
876,876,Go Rakovica,,44.7432588,20.4451589,2,,0,,,0
877,877,Servis Dmb,,44.7359372,20.4449117,2,,0,,,0
878,878,Servis Dmb,,44.7360715,20.4449955,2,,0,,,0
879,879,Manastir Rakovica,,44.7322297,20.4468805,2,,0,,,0
880,880,Manastir Rakovica,,44.7314066,20.4473518,2,,0,,,0
881,881,Josipa Telarevića (Izlaz),,44.7280608,20.4474432,2,,0,,,0
882,882,Josipa Telarevića (Izlaz),,44.7270844,20.4484715,2,,0,,,0
883,883,Tunel Straževica,,44.724886,20.4498968,2,,0,,,0
884,884,Tunel Straževica,,44.7247381,20.4506226,2,,0,,,0
888,888,Resnik /Ulaz/,,44.716548,20.465422,2,,0,,,0
889,889,Avalska,,44.714348,20.4594453,2,,0,,,0
890,890,Avalska,,44.7142727,20.4596094,2,,0,,,0
891,891,Kamenac,,44.7125193,20.4562332,2,,0,,,0
892,892,Kamenac,,44.7126115,20.4566565,2,,0,,,0
893,893,13.Oktobra,,44.7105954,20.4525615,2,,0,,,0
894,894,13.Oktobra,,44.7106508,20.4529309,2,,0,,,0
895,895,Aleksandra Vojinovića,,44.7068981,20.4512169,2,,0,,,0
896,896,Aleksandra Vojinovića,,44.7066381,20.4511579,2,,0,,,0
897,897,Železnička Stanica Resnik,,44.7044394,20.4493698,2,,0,,,0
898,898,Železnička Stanica Resnik,,44.7046553,20.4496399,2,,0,,,0
899,899,Slavoljuba Vuksanovića,,44.7479037,20.456754,2,,0,,,0
900,900,Slavoljuba Vuksanovića,,44.7484269,20.4569117,2,,0,,,0
901,901,Narod. Heroja Velizara Stankovića,,44.7457662,20.4582822,2,,0,,,0
902,902,Narod. Heroja Velizara Stankovića,,44.7459192,20.4581367,2,,0,,,0
903,903,Miljakovac 2,,44.7477034,20.460939,2,,0,,,0
904,904,Miljakovac 2,,44.7477196,20.4598773,2,,0,,,0
905,905,Bistrička,,44.810322,20.480288,1,,0,,,0
906,906,Ustanička,,44.7848775,20.5170981,1,,0,,,0
907,907,Bulevar Peka Dapčevića,,44.7628118,20.4893037,1,,0,,,0
908,908,Bulevar Peka Dapčevića,,44.763292,20.4904841,1,,0,,,0
909,909,Trošarina,,44.7616194,20.4833105,1,,0,,,0
910,910,Trošarina,,44.7614,20.482889,1,,0,,,0
911,911,Železnik R,,44.7422268,20.3588326,2,,0,,,0
912,912,Nemanjina,,44.807932,20.458323,1,,0,,,0
913,913,Drinska,,44.8009423,20.4518482,1,,0,,,0
914,914,Žarkovo,,44.7585149,20.4150897,2,,0,,,0
915,915,Braće Vučković,,44.753445,20.4135223,2,,0,,,0
916,916,Braće Vučković,,44.7547263,20.4147091,2,,0,,,0
917,917,Zdravka Jovanovića,,44.7491707,20.4110274,2,,0,,,0
918,918,Zdravka Jovanovića,,44.7491149,20.4107491,2,,0,,,0
919,919,Crveno Barjače,,44.7505014,20.4073662,2,,0,,,0
920,920,Crveno Barjače,,44.7500432,20.4081044,2,,0,,,0
921,921,Belo Vrelo,,44.7506364,20.4051137,2,,0,,,0
922,922,Belo Vrelo,,44.7508201,20.4054481,2,,0,,,0
923,923,Bele Vode,,44.7481811,20.4031769,2,,0,,,0
924,924,Bele Vode,,44.7481515,20.4031172,2,,0,,,0
925,925,Trg Slavija /Nemanjina/,,44.8033579,20.4644407,1,,0,,,0
926,926,Trg Slavija /Nemanjina/,,44.8030568,20.4644746,1,,0,,,0
927,927,Nedeljka Gvozdenovića,,44.815158,20.3730491,1,,0,,,0
928,928,Šavnička,,44.7499637,20.4230639,2,,0,,,0
929,929,Šavnička,,44.7503553,20.4239485,2,,0,,,0
930,930,Ljubice Ivošević,,44.7490258,20.4204904,2,,0,,,0
931,931,Ljubice Ivošević,,44.7488858,20.4203318,2,,0,,,0
932,932,Ostružnica 1,,44.7336348,20.3209809,2,,0,,,0
933,933,Zeleni Venac,,44.8138499,20.4572432,1,,0,,,0
934,934,Zeleni Venac,,44.8140367,20.4559029,1,,0,,,0
935,935,Kosmajska,,44.71553,20.32249,2,,0,,,0
936,936,Miloša Pocerca,,44.8035737,20.4550267,1,,0,,,0
937,937,Vidikovac,,44.7319704,20.4206381,2,,0,,,0
938,938,Kanarevo Brdo /Dom Zdravlja/,,44.7547445,20.4539311,2,,0,,,0
939,939,Oš Đura Jakšić,,44.7532699,20.4508803,2,,0,,,0
940,940,Božidara Stojanovića,,44.7501922,20.4527367,2,,0,,,0
941,941,Ulica Oslobođenja ,,44.7390507,20.438543,2,,0,,,0
942,942,Ulica Oslobođenja ,,44.7386106,20.4375226,2,,0,,,0
943,943,Kneževac,,44.7346288,20.4314202,2,,0,,,0
944,944,Kneževac,,44.73443,20.43158,2,,0,,,0
945,945,Vijadukt,,44.725595,20.4339951,2,,0,,,0
946,946,Vijadukt,,44.7254519,20.4341791,2,,0,,,0
947,947,Usek,,44.7201823,20.4319995,2,,0,,,0
948,948,Usek,,44.7204223,20.4324576,2,,0,,,0
949,949,Petlovo Brdo,,44.7179022,20.4231251,2,,0,,,0
950,950,Petlovo Brdo,,44.7173099,20.4244657,2,,0,,,0
951,951,Dorćol /Src Milan Gale Muškatirović/,,44.829468,20.455898,1,,0,,,0
952,952,Dorćol /Src Milan Gale Muškatirović/,,44.829666,20.455914,1,,0,,,0
953,953,Novo Naselje,,44.7259969,20.3912896,2,,0,,,0
954,954,Novo Naselje,,44.7255961,20.3919309,2,,0,,,0
955,955,Avalska,,44.7287909,20.3825001,2,,0,,,0
956,956,Avalska,,44.7287033,20.3833833,2,,0,,,0
957,957,Železnik /Centar/,,44.7286873,20.3754987,2,,0,,,0
958,958,Železnik /Centar/,,44.7285767,20.3764117,2,,0,,,0
959,959,Pijaca,,44.7272183,20.37414,2,,0,,,0
960,960,Ivo Lola Ribar,,44.7276072,20.3680559,2,,0,,,0
961,961,Ivo Lola Ribar,,44.7274241,20.3680263,2,,0,,,0
962,962,Privredna Zona Makiš,,44.7578586,20.3463649,2,,0,,,0
963,963,Ostružnica 2,,44.7236793,20.314483,2,,0,,,0
964,964,Pećani,,44.6965594,20.3168178,2,,0,,,0
965,965,Umka - Centar,,44.6798847,20.3047933,2,,0,,,0
966,966,Svetolika Lazarevića Laze,,44.7837383,20.4123033,1,,0,,,0
967,967,Svetolika Lazarevića Laze,,44.7843556,20.4126008,1,,0,,,0
968,968,Obalskih Radnika,,44.7805708,20.4092899,1,,0,,,0
969,969,Obalskih Radnika,,44.7813784,20.4098047,1,,0,,,0
970,970,Mz Čukarička Padina,,44.7766121,20.4077906,1,,0,,,0
971,971,Mz Čukarička Padina,,44.7774057,20.4082504,1,,0,,,0
972,972,Umka - Izlaz,,44.6852242,20.3122827,2,,0,,,0
973,973,Umka - Karađorđeva,,44.6903786,20.3191583,2,,0,,,0
974,974,Inos,,44.7691962,20.4073888,2,,0,,,0
975,975,Inos,,44.76993,20.4078631,2,,0,,,0
976,976,Kontaktor,,44.7669575,20.4064846,2,,0,,,0
977,977,Kontaktor,,44.7665691,20.4065033,2,,0,,,0
978,978,Ateks,,44.7624492,20.4045437,2,,0,,,0
979,979,Ateks,,44.7637503,20.4053148,2,,0,,,0
980,980,Bele Vode,,44.7550123,20.4036674,2,,0,,,0
981,981,Bele Vode,,44.7554597,20.4037572,2,,0,,,0
982,982,Železnički Tunel,,44.7493914,20.4001929,2,,0,,,0
983,983,Železnički Tunel,,44.7494889,20.4004267,2,,0,,,0
984,984,Rupčine,,44.7465126,20.3964535,2,,0,,,0
985,985,Rupčine,,44.7465555,20.3967977,2,,0,,,0
986,986,Put Za Žtp,,44.7408829,20.3892951,2,,0,,,0
987,987,Put Za Žtp,,44.7419026,20.3908599,2,,0,,,0
988,988,Ranžirna Stanica,,44.7379443,20.385615,2,,0,,,0
989,989,Ranžirna Stanica,,44.7375814,20.3852854,2,,0,,,0
990,990,Železnik /Ulaz/,,44.735367,20.380266,2,,0,,,0
991,991,Železnik /Ulaz/,,44.7355933,20.3810972,2,,0,,,0
992,992,Železnik (Zlatanovići),,44.7343503,20.376402,2,,0,,,0
993,993,Železnik (Zlatanovići),,44.7342422,20.3762321,2,,0,,,0
994,994,Braće Mitrović ,,44.7320595,20.3697744,2,,0,,,0
995,995,Braće Mitrović ,,44.7323738,20.3706879,2,,0,,,0
996,996,Mz Novi Železnik,,44.7297667,20.38293,2,,0,,,0
997,997,Mz Novi Železnik,,44.7292983,20.3829083,2,,0,,,0
998,998,Novi Železnik,,44.732139,20.380188,2,,0,,,0
999,999,Novi Železnik,,44.7317226,20.3793669,2,,0,,,0
1000,1000,Vodovodska,,44.7656681,20.412956,1,,0,,,0
1001,1001,Vodovodska,,44.7654463,20.4127698,1,,0,,,0
1002,1002,Valjevska,,44.771257,20.4101013,1,,0,,,0
1003,1003,Valjevska,,44.7703027,20.4106806,1,,0,,,0
1004,1004,Narodnih Heroja,,44.8164048,20.4013666,1,,0,,,0
1005,1005,Čukarička Padina,,44.778096,20.404921,1,,0,,,0
1006,1006,Stevana Đurđevića,,44.776323,20.405422,1,,0,,,0
1007,1007,Jkp Zelenilo Beograd,,44.8253818,20.3813123,1,,0,,,0
1008,1008,Zeleni Venac,,44.8139208,20.4566381,1,,0,,,0
1009,1009,Jablanička,,44.7480175,20.4117891,2,,0,,,0
1010,1010,Jablanička,,44.7498175,20.4122438,2,,0,,,0
1011,1011,Kneževac,,44.7336071,20.4195114,2,,0,,,0
1012,1012,Kneževac,,44.7352644,20.4193438,2,,0,,,0
1013,1013,Labudovo Brdo,,44.7304693,20.4221902,2,,0,,,0
1014,1014,Labudovo Brdo,,44.7306373,20.4215285,2,,0,,,0
1015,1015,Serdar Janka Vukotića,,44.7272441,20.4259799,2,,0,,,0
1016,1016,Serdar Janka Vukotića,,44.7280274,20.4257612,2,,0,,,0
1017,1017,Jedanaeste Krajiške Divizije,,44.7262392,20.4258557,2,,0,,,0
1018,1018,Jedanaeste Krajiške Divizije,,44.7261312,20.4262854,2,,0,,,0
1019,1019,Generala Zgonjanina,,44.724727,20.4222863,2,,0,,,0
1020,1020,Generala Zgonjanina,,44.7251427,20.4232776,2,,0,,,0
1021,1021,Milorada Draškovića,,44.7215544,20.4211475,2,,0,,,0
1022,1022,Milorada Draškovića,,44.722028,20.421255,2,,0,,,0
1023,1023,Rasinska,,44.720133,20.4254485,2,,0,,,0
1024,1024,Rasinska,,44.7203056,20.4251382,2,,0,,,0
1025,1025,Petlovo Brdo,,44.7184798,20.4283188,2,,0,,,0
1026,1026,Petlovo Brdo,,44.7184276,20.4286759,2,,0,,,0
1027,1027,Banovo Brdo,,44.768232,20.4137316,2,,0,,,0
1028,1028,Vojno Medicinski Centar,,44.7463191,20.428285,2,,0,,,0
1029,1029,Hotel Nacional,,44.8270457,20.3854587,1,,0,,,0
1030,1030,Hotel Nacional,,44.8266559,20.3860334,1,,0,,,0
1031,1031,Jkp Zelenilo Beograd,,44.8257814,20.3816324,1,,0,,,0
1032,1032,Robni Terminal,,44.8170887,20.2886535,2,,0,,,0
1033,1033,Bežanijska Kosa /Groblje/,,44.8176097,20.3714308,1,,0,,,0
1034,1034,Cvijićeva,,44.8176366,20.476838,1,,0,,,0
1035,1035,Julino Brdo,,44.7631557,20.4107816,2,,0,,,0
1036,1036,Julino Brdo,,44.7634942,20.4114119,2,,0,,,0
1037,1037,Ilije Đuričića,,44.759993,20.4068707,2,,0,,,0
1038,1038,Ilije Đuričića,,44.7597603,20.4068226,2,,0,,,0
1039,1039,Bele Vode,,44.7556103,20.4043199,2,,0,,,0
1040,1040,Bele Vode,,44.7554,20.4043767,2,,0,,,0
1041,1041,Železnička Stanica Bgd Centar,,44.7927501,20.4539061,1,,0,,,0
1042,1042,Biodekor,,44.8064572,20.3522469,1,,0,,,0
1043,1043,Bulevar Kneza Aleksandra Karađorđevića,,44.7900716,20.4560157,1,,0,,,0
1044,1044,Bulevar Kneza Aleksandra Karađorđevića,,44.7899098,20.4559816,1,,0,,,0
1045,1045,Aerodrom Nikola Tesla,,44.818815,20.29056,2,,0,,,0
1046,1046,Novo Naselje,,44.8135958,20.5416195,2,,0,,,0
1047,1047,Zeleni Venac,,44.8140577,20.4555803,1,,0,,,0
1048,1048,Njegoševa,,44.8855633,20.5361939,2,,0,,,0
1049,1049,Zeleni Venac,,44.8141258,20.4576279,1,,0,,,0
1050,1050,Staro Sajmište,,44.8121703,20.441502,1,,0,,,0
1051,1051,Staro Sajmište,,44.8121418,20.4416695,1,,0,,,0
1052,1052,Slavka Šlandera,,44.8093699,20.4433806,1,,0,,,0
1053,1053,Slavka Šlandera,,44.8094869,20.4435748,1,,0,,,0
1054,1054,Most Gazela,,44.8053747,20.4394717,1,,0,,,0
1055,1055,Most Gazela,,44.8054016,20.4396869,1,,0,,,0
1056,1056,Železnički Most Sava,,44.803394,20.4364057,1,,0,,,0
1057,1057,Železnički Most Sava,,44.8033836,20.436192,1,,0,,,0
1058,1058,Novi Železnički Most,,44.8037,20.43074,1,,0,,,0
1059,1059,Novi Železnički Most,,44.803773,20.4312266,1,,0,,,0
1060,1060,Jrb,,44.802664,20.4250129,1,,0,,,0
1061,1061,Jrb,,44.8023294,20.4253114,1,,0,,,0
1062,1062,Blok 42,,44.8036625,20.4186322,1,,0,,,0
1063,1063,Gp Rad,,44.8012032,20.4154619,1,,0,,,0
1064,1064,Gp Rad,,44.8009834,20.4161698,1,,0,,,0
1065,1065,Toplana,,44.8013988,20.4138209,1,,0,,,0
1066,1066,Zvezdara 2,,44.8067817,20.509502,1,,0,,,0
1067,1067,Zvezdara 2,,44.8068417,20.5093371,1,,0,,,0
1068,1068,Institut Mihajlo Pupin,,44.8081819,20.5059705,1,,0,,,0
1069,1069,Institut Mihajlo Pupin,,44.8075276,20.5067257,1,,0,,,0
1070,1070,Dragiše Lapčevića,,44.8092081,20.4986074,1,,0,,,0
1071,1071,Dragiše Lapčevića,,44.8092721,20.4997563,1,,0,,,0
1072,1072,Ljubice Luković,,44.8081939,20.4937102,1,,0,,,0
1073,1073,Ljubice Luković,,44.8080756,20.4938373,1,,0,,,0
1074,1074,Pante Srećkovića,,44.8064042,20.493881,1,,0,,,0
1075,1075,Pante Srećkovića,,44.806241,20.4940293,1,,0,,,0
1076,1076,Veljka Dugoševića,,44.8053376,20.4924229,1,,0,,,0
1077,1077,Veljka Dugoševića,,44.8053379,20.4913679,1,,0,,,0
1078,1078,Toplička,,44.8059016,20.4901022,1,,0,,,0
1079,1079,Braće Ribnikar,,44.8083388,20.4844031,1,,0,,,0
1080,1080,Braće Ribnikar,,44.8084568,20.4840061,1,,0,,,0
1081,1081,Nikole Doksata,,44.7995127,20.520974,1,,0,,,0
1082,1082,Robni Terminal,,44.8173628,20.2882364,2,,0,,,0
1083,1083,Blagoja Rankovića,,44.697306,20.323894,2,,0,,,0
1084,1084,Fontana,,44.8255759,20.4081935,1,,0,,,0
1085,1085,Bulevar Zorana Đinđića,,44.8235322,20.4065496,1,,0,,,0
1086,1086,Uprava Carine,,44.8223928,20.405317,1,,0,,,0
1087,1087,Uprava Carine,,44.8219025,20.4050809,1,,0,,,0
1088,1088,Autoput,,44.8190118,20.40225,1,,0,,,0
1089,1089,Autoput,,44.8196959,20.4030943,1,,0,,,0
1090,1090,Narodnih Heroja,,44.8175918,20.3996484,1,,0,,,0
1091,1091,Blok 37,,44.8178189,20.4013878,1,,0,,,0
1092,1092,Omladinski Stadion /Ulaz/,,44.8151304,20.4897551,1,,0,,,0
1093,1093,Omladinski Stadion/Izlaz/,,44.8150182,20.4893167,1,,0,,,0
1094,1094,Bulevar Zorana Đinđića,,44.8205836,20.4154992,1,,0,,,0
1095,1095,Bulevar Zorana Đinđića,,44.8204869,20.4158698,1,,0,,,0
1096,1096,Blok 29,,44.81775,20.4129965,1,,0,,,0
1097,1097,Blok 29,,44.8177794,20.413423,1,,0,,,0
1098,1098,Fakultet Dramskih Umetnosti,,44.8148953,20.410412,1,,0,,,0
1099,1099,Fakultet Dramskih Umetnosti,,44.8156676,20.411513,1,,0,,,0
1100,1100,Petra Drapšina,,44.871126,20.4564785,2,,0,,,0
1101,1101,Blok 28,,44.8137028,20.4097354,1,,0,,,0
1102,1102,Španskih Boraca,,44.8107353,20.4146079,1,,0,,,0
1103,1103,Milutina Milankovića,,44.808862,20.4204014,1,,0,,,0
1104,1104,Milutina Milankovića,,44.8088098,20.4188042,1,,0,,,0
1105,1105,Blok 24,,44.8100438,20.4214728,1,,0,,,0
1106,1106,Blok 24,,44.809802,20.4208471,1,,0,,,0
1107,1107,Zeleni Venac,,44.8139303,20.4567162,1,,0,,,0
1108,1108,Jurija Gagarina,,44.8015175,20.3886459,1,,0,,,0
1109,1109,Jurija Gagarina,,44.8010538,20.3890215,1,,0,,,0
1110,1110,Blok 70 -Okretnica,,44.798311,20.389525,1,,0,,,0
1111,1111,Blok 70,,44.797577,20.389889,1,,0,,,0
1112,1112,Blok 70a,,44.7980193,20.4002925,1,,0,,,0
1113,1113,Blok 70a,,44.7977392,20.40009,1,,0,,,0
1114,1114,Jurija Gagarina,,44.8018548,20.3997811,1,,0,,,0
1115,1115,Jurija Gagarina,,44.8016489,20.399577,1,,0,,,0
1116,1116,Studentska,,44.8261907,20.4023302,1,,0,,,0
1117,1117,Studentska,,44.8269944,20.4032695,1,,0,,,0
1118,1118,Studentski Grad,,44.8261014,20.3977762,1,,0,,,0
1119,1119,Studentski Grad,,44.8262715,20.3991607,1,,0,,,0
1120,1120,Pećani /Škola/,,44.6928518,20.3306393,2,,0,,,0
1121,1121,V. Moštanica - Crkva,,44.6840029,20.3406445,2,,0,,,0
1122,1122,Železnička Stanica Tošin Bunar,,44.8171467,20.395009,1,,0,,,0
1123,1123,Železnička Stanica Tošin Bunar,,44.8169189,20.3952643,1,,0,,,0
1124,1124,Stari Aerodrom,,44.813957,20.3926014,1,,0,,,0
1125,1125,Strugarska,,44.7771,20.40715,1,,0,,,0
1126,1126,Imt,,44.8125017,20.3895521,1,,0,,,0
1127,1127,Imt,,44.8128907,20.3912668,1,,0,,,0
1128,1128,Gandijeva,,44.81005,20.38136,1,,0,,,0
1130,1130,Naselje Mileva Marić Ajnštajn,,44.79868,20.36781,1,,0,,,0
1131,1131,Hasanaginica,,44.7579393,20.4558341,1,,0,,,0
1132,1132,Koste Živkovića,,44.7568718,20.4515835,1,,0,,,0
1133,1133,Kbc Bežanijska Kosa,,44.8289738,20.3835276,1,,0,,,0
1134,1134,Naselje Mileva Marić Ajnštajn,,44.798352,20.367378,1,,0,,,0
1135,1135,Crkva Sv. Georgija,,44.807829,20.375953,1,,0,,,0
1136,1136,Crkva Sv. Georgija,,44.8080602,20.3770257,1,,0,,,0
1137,1137,Dušana Vukasovića,,44.8056591,20.3705114,1,,0,,,0
1138,1138,Dušana Vukasovića,,44.8061095,20.3723185,1,,0,,,0
1139,1139,Surčinska,,44.8041303,20.3667599,1,,0,,,0
1140,1140,Surčinska,,44.8040025,20.3671663,1,,0,,,0
1141,1141,Nedeljka Gvozdenovića,,44.8076708,20.3605821,1,,0,,,0
1142,1142,Nedeljka Gvozdenovića,,44.8075849,20.3603028,1,,0,,,0
1143,1143,Ledine,,44.8051292,20.3491893,1,,0,,,0
1144,1144,Blok 44,,44.797067,20.383964,1,,0,,,0
1145,1145,Blok 44,,44.7965433,20.3841608,1,,0,,,0
1146,1146,Dom Zdravlja Blok 44,,44.7992612,20.3826389,1,,0,,,0
1147,1147,Dom Zdravlja Blok 44,,44.7988459,20.382643,1,,0,,,0
1148,1148,Dr Ivana Ribara,,44.7993363,20.3702931,1,,0,,,0
1149,1149,"Naselje ""Dr Ivan Ribar""",,44.7997804,20.3695311,1,,0,,,0
1150,1150,Blok 61,,44.8016461,20.3683271,1,,0,,,0
1151,1151,Blok 61,,44.803159,20.3665382,1,,0,,,0
1152,1152,Zemun /Gornji Grad/,,44.8591469,20.3780516,1,,0,,,0
1153,1153,Zemun /Gornji Grad/,,44.858848,20.3783429,1,,0,,,0
1154,1154,Geomašina,,44.8653319,20.3638949,2,,0,,,0
1155,1155,Geomašina,,44.8646947,20.3649936,2,,0,,,0
1156,1156,Preduzeće Galenika Magmasil,,44.8674141,20.3590118,2,,0,,,0
1157,1157,Preduzeće Galenika Magmasil,,44.8671356,20.3592778,2,,0,,,0
1158,1158,Coca-Cola,,44.8697242,20.3537181,2,,0,,,0
1159,1159,Coca-Cola,,44.8684548,20.3562482,2,,0,,,0
1160,1160,Elektronska Industrija,,44.8740376,20.3437955,2,,0,,,0
1161,1161,Elektronska Industrija,,44.8737049,20.3440665,2,,0,,,0
1162,1162,Put Za 13. Maj,,44.8783216,20.3339526,2,,0,,,0
1163,1163,Put Za 13. Maj,,44.877831,20.33452,2,,0,,,0
1164,1164,Ciglana,,44.885725,20.316782,2,,0,,,0
1165,1165,Ciglana,,44.884949,20.31812,2,,0,,,0
1166,1166,Naselje Ekonomija,,44.88951,20.308518,2,,0,,,0
1167,1167,Naselje Ekonomija,,44.888646,20.310073,2,,0,,,0
1168,1168,Belarička,,44.892512,20.301947,2,,0,,,0
1169,1169,Batajnica (Ulaz),,44.894836,20.296452,2,,0,,,0
1170,1170,Batajnica (Ulaz),,44.89552,20.295328,2,,0,,,0
1171,1171,Maksima Brankovića,,44.8973292,20.2915951,2,,0,,,0
1172,1172,Maksima Brankovića,,44.8979894,20.2897153,2,,0,,,0
1173,1173,Braće Smiljanić,,44.9001229,20.2855922,2,,0,,,0
1174,1174,Braće Smiljanić,,44.8992527,20.2870632,2,,0,,,0
1175,1175,Majke Jugovića,,44.902663,20.280901,2,,0,,,0
1176,1176,Majke Jugovića,,44.901541,20.282494,2,,0,,,0
1177,1177,Batajnica (Centar),,44.9057599,20.274251,2,,0,,,0
1178,1178,Batajnica (Centar),,44.905766,20.275185,2,,0,,,0
1179,1179,Batajnica /Železnička Rampa/,,44.90196,20.26964,2,,0,,,0
1180,1180,Batajnica /Železnička Rampa/,,44.9020844,20.269977,2,,0,,,0
1181,1181,Milutina Milankovića,,44.8203719,20.3962053,1,,0,,,0
1182,1182,Studentski Grad,,44.8268924,20.3966314,1,,0,,,0
1183,1183,Sc 11. April,,44.826436,20.3928697,1,,0,,,0
1184,1184,Sc 11. April,,44.8270536,20.3939692,1,,0,,,0
1185,1185,Stojana Aralice,,44.8227612,20.3884675,1,,0,,,0
1186,1186,Stojana Aralice,,44.8226026,20.3887371,1,,0,,,0
1187,1187,Nikole Dobrovića,,44.8180292,20.3862545,1,,0,,,0
1188,1188,Nikole Dobrovića,,44.8172781,20.3847181,1,,0,,,0
1189,1189,Dr Huga Klajna,,44.8199628,20.3811128,1,,0,,,0
1190,1190,Dr Huga Klajna,,44.8200374,20.3796949,1,,0,,,0
1191,1191,Bežanijska Kosa (Izlaz),,44.8206389,20.3777605,1,,0,,,0
1192,1192,Nedeljka Gvozdenovića,,44.8145055,20.3749084,1,,0,,,0
1193,1193,Bežanijska Kosa /Groblje/,,44.8173972,20.3710488,1,,0,,,0
1194,1194,Gandijeva,,44.8107107,20.3833027,1,,0,,,0
1195,1195,Zelengorska,,44.8276786,20.3889909,1,,0,,,0
1196,1196,Zelengorska,,44.82747,20.3892162,1,,0,,,0
1197,1197,Kbc Bežanijska Kosa,,44.8292882,20.3827573,1,,0,,,0
1198,1198,Bežanijska Kosa,,44.8300011,20.3799393,1,,0,,,0
1199,1199,Dom Penzionera,,44.8334894,20.390529,1,,0,,,0
1200,1200,Generala Nedeljkovića,,44.8170742,20.3889363,1,,0,,,0
1201,1201,Generala Nedeljkovića,,44.8167576,20.3890554,1,,0,,,0
1202,1202,Nikole Dobrovića,,44.8189364,20.3845601,1,,0,,,0
1203,1203,Zrenjaninski Put,,44.886505,20.459034,2,,0,,,0
1204,1204,Bežanijska Kosa (Ulaz),,44.8206761,20.3760565,1,,0,,,0
1205,1205,Raška Dimitrijevića,,44.8136169,20.3781983,1,,0,,,0
1206,1206,Raška Dimitrijevića,,44.8140696,20.3769684,1,,0,,,0
1207,1207,Vojvođanska,,44.80982,20.38285,1,,0,,,0
1208,1208,Pukovnika Petra Mišića,,44.7578828,20.4955554,2,,0,,,0
1209,1209,V. Moštanica - Ekonom.,,44.6770669,20.3452863,2,,0,,,0
1210,1210,Vojvođanska,,44.8109675,20.382295,1,,0,,,0
1211,1211,Mz Mladost,,44.8064505,20.385636,1,,0,,,0
1212,1212,Mz Mladost,,44.806247,20.3861778,1,,0,,,0
1213,1213,Pijaca Blok 44,,44.8028249,20.3844218,1,,0,,,0
1214,1214,Pijaca Blok 44,,44.8023568,20.3839491,1,,0,,,0
1215,1215,Batajnica /Železnička Stanica/,,44.899939,20.2711394,2,,0,,,0
1216,1216,Kneza Miloša,,44.8052917,20.4612779,1,,0,,,0
1217,1217,Kneza Miloša,,44.8053816,20.4606571,1,,0,,,0
1218,1218,Savski Trg,,44.807161,20.457858,1,,0,,,0
1220,1220,Vrtić Milica,,44.84637,20.35884,2,,0,,,0
1221,1221,Vrtić Milica,,44.84641,20.35982,2,,0,,,0
1222,1222,Zadrugarska,,44.8501961,20.3818841,1,,0,,,0
1223,1223,Zadrugarska,,44.8502017,20.383299,1,,0,,,0
1224,1224,Zemun /Bačka/,,44.8480834,20.3791326,1,,0,,,0
1225,1225,Dobrivoja Jovanovića,,44.673702,20.3516924,2,,0,,,0
1226,1226,Zeleni Venac,,44.8139998,20.456194,1,,0,,,0
1227,1227,Karađorđev Trg,,44.8380963,20.4167476,1,,0,,,0
1228,1228,Košutnjak,,44.756601,20.447903,1,,0,,,0
1229,1229,Koste Živkovića,,44.756951,20.4523858,1,,0,,,0
1230,1230,Galenika ,,44.862307,20.3679204,2,,0,,,0
1231,1231,Galenika ,,44.8617698,20.3676598,2,,0,,,0
1232,1232,Galenika (Kapija),,44.8595699,20.3656316,2,,0,,,0
1233,1233,Mihajla Vukše,,44.8580952,20.3684524,2,,0,,,0
1234,1234,Mihajla Vukše,,44.8585144,20.3676778,2,,0,,,0
1235,1235,Nova Galenika,,44.8571075,20.3699202,2,,0,,,0
1236,1236,Zemun /Bačka/,,44.8489652,20.3795217,1,,0,,,0
1237,1237,Borča 3,,44.874591,20.4481775,2,,0,,,0
1238,1238,Borča 3,,44.8747258,20.4483189,2,,0,,,0
1239,1239,Bele Bartoka,,44.8777588,20.4517447,2,,0,,,0
1240,1240,Bele Bartoka,,44.87718,20.4513544,2,,0,,,0
1241,1241,Kombinatova,,44.8806961,20.4528661,2,,0,,,0
1242,1242,Kombinatova,,44.8800679,20.4520191,2,,0,,,0
1243,1243,Mihajla Šolohova,,44.879057,20.4564446,2,,0,,,0
1244,1244,Mihajla Šolohova,,44.878898,20.4568994,2,,0,,,0
1245,1245,Milana Ajvaza,,44.8773959,20.4591138,2,,0,,,0
1246,1246,Milana Ajvaza,,44.877238,20.4595235,2,,0,,,0
1247,1247,Valjevskog Odreda,,44.8755242,20.4629357,2,,0,,,0
1248,1248,Valjevskog Odreda,,44.8756378,20.4620167,2,,0,,,0
1249,1249,Borča Raskršće,,44.8771776,20.4675475,2,,0,,,0
1250,1250,Borča Raskršće,,44.8776536,20.4675509,2,,0,,,0
1251,1251,Sebeš Mokri,,44.8726881,20.4705439,2,,0,,,0
1252,1252,Sebeš Mokri,,44.87207,20.471353,2,,0,,,0
1253,1253,Sebeška Reka,,44.8680103,20.4736953,1,,0,,,0
1254,1254,Sebeška Reka,,44.8684424,20.4737087,1,,0,,,0
1255,1255,Sebeš Suvi,,44.8606165,20.478636,1,,0,,,0
1256,1256,Sebeš Suvi,,44.8618987,20.4780892,1,,0,,,0
1257,1257,Pakračka,,44.8573939,20.4807873,1,,0,,,0
1258,1258,Pakračka,,44.8585958,20.4802998,1,,0,,,0
1259,1259,Pirotsko Naselje,,44.8524298,20.4841113,1,,0,,,0
1260,1260,Pirotsko Naselje,,44.8536725,20.4835948,1,,0,,,0
1261,1261,Blok 42,,44.8041104,20.4160771,1,,0,,,0
1262,1262,Blok 61,,44.8011941,20.370284,1,,0,,,0
1263,1263,Agostina Neta,,44.8047066,20.4025696,1,,0,,,0
1264,1264,Agostina Neta,,44.8042606,20.4051439,1,,0,,,0
1265,1265,Pilota Mihajla Petrovića,,44.7446808,20.4377622,2,,0,,,0
1266,1266,Pilota Mihajla Petrovića,,44.7449087,20.4384868,2,,0,,,0
1267,1267,Blok 63,,44.8065878,20.3815317,1,,0,,,0
1268,1268,Blok 63,,44.8055152,20.3820278,1,,0,,,0
1269,1269,Blok 62,,44.8042076,20.3756957,1,,0,,,0
1270,1270,Blok 62,,44.8034657,20.3770023,1,,0,,,0
1271,1271,Mz Blok 61,,44.802592,20.3717528,1,,0,,,0
1272,1272,Mz Blok 61,,44.8017138,20.372721,1,,0,,,0
1273,1273,Petrovčić,,44.795087,20.1354494,2,,0,,,0
1274,1274,Bratstva I Jedinstva,,44.8869282,20.461012,2,,0,,,0
1275,1275,Drinske Divizije,,44.8855391,20.4579275,2,,0,,,0
1276,1276,Drinske Divizije,,44.8850778,20.4576069,2,,0,,,0
1277,1277,Save Mrkalja,,44.8827252,20.454814,2,,0,,,0
1278,1278,Save Mrkalja,,44.8825486,20.4548269,2,,0,,,0
1279,1279,Omladinski Stadion,,44.8154917,20.4901294,1,,0,,,0
1280,1280,Bratstva I Jedinstva,,44.8886164,20.4601283,2,,0,,,0
1281,1281,Blok 72,,44.80032,20.3662,1,,0,,,0
1282,1282,Blok 72,,44.80064,20.36554,1,,0,,,0
1283,1283,Put Za Kovilovo,,44.9136212,20.4434041,2,,0,,,0
1284,1284,Put Za Kovilovo,,44.9123517,20.4440052,2,,0,,,0
1285,1285,Put Za Jabučki Rit,,44.9178394,20.4405835,2,,0,,,0
1286,1286,Put Za Jabučki Rit,,44.915675,20.4417575,2,,0,,,0
1287,1287,Frikom,,44.9219127,20.4378568,2,,0,,,0
1288,1288,Frikom,,44.9204316,20.4386146,2,,0,,,0
1289,1289,Pk Beograd,,44.9300469,20.4375889,2,,0,,,0
1290,1290,Pk Beograd,,44.928572,20.4369615,2,,0,,,0
1291,1291,Naselje Tovilište,,44.935232,20.436009,2,,0,,,0
1292,1292,Naselje Tovilište 1,,44.9338536,20.4370682,2,,0,,,0
1293,1293,Marije Ilić Agapove,,44.9378518,20.432008,2,,0,,,0
1294,1294,Marije Ilić Agapove,,44.9372187,20.4323187,2,,0,,,0
1295,1295,Ratomira Stojadinovića,,44.9417665,20.4286609,2,,0,,,0
1296,1296,Ratomira Stojadinovića,,44.9418224,20.4283794,2,,0,,,0
1297,1297,Padinska Skela,,44.9449658,20.4252142,2,,0,,,0
1298,1298,Padinska Skela,,44.9450291,20.4252674,2,,0,,,0
1301,1301,Kp Dom,,44.9542342,20.4281055,2,,0,,,0
1302,1302,Kp Dom,,44.9545979,20.4273142,2,,0,,,0
1303,1303,Sefkereški Kanal,,44.9720148,20.4184976,2,,0,,,0
1304,1304,Sefkereški Kanal,,44.9729043,20.4178724,2,,0,,,0
1305,1305,Put Za Vrbovski,,44.9926445,20.4123051,2,,0,,,0
1306,1306,Put Za Vrbovski,,44.9918525,20.4121808,2,,0,,,0
1307,1307,Besni Fok,,44.9946345,20.4072906,2,,0,,,0
1308,1308,Besni Fok,,44.9945476,20.4074545,2,,0,,,0
1309,1309,Ambulanta,,44.9939006,20.3967652,2,,0,,,0
1310,1310,Ambulanta,,44.9938408,20.3971452,2,,0,,,0
1311,1311,Vodovodna Stanica,,44.9877981,20.3858907,2,,0,,,0
1312,1312,Vodovodna Stanica,,44.9878309,20.386141,2,,0,,,0
1313,1313,Vrbovski (Ulaz),,44.9800438,20.3590833,2,,0,,,0
1314,1314,Vrbovski (Ulaz),,44.9798309,20.3589542,2,,0,,,0
1315,1315,Vrbovski,,44.9780652,20.356172,2,,0,,,0
1316,1316,Mihaila Bulgakova,,44.7872916,20.5406358,2,,0,,,0
1317,1317,Sonje Marinković,,44.8734275,20.4591567,2,,0,,,0
1319,1319,Valjevskog Odreda,,44.8750986,20.4619483,2,,0,,,0
1320,1320,Trg Oslobođenja,,44.8719693,20.4567036,2,,0,,,0
1321,1321,Mihaila Bulgakova,,44.7873397,20.5404856,2,,0,,,0
1322,1322,Branka Radičevića,,44.8692214,20.4535564,2,,0,,,0
1323,1323,Branka Radičevića,,44.8691245,20.4545753,2,,0,,,0
1324,1324,Vuka Karadžića,,44.8693331,20.4493283,2,,0,,,0
1325,1325,Vuka Karadžića,,44.8692209,20.4503331,2,,0,,,0
1326,1326,Veliki Kanal,,44.8625341,20.439571,2,,0,,,0
1327,1327,Veliki Kanal,,44.8632087,20.4408109,2,,0,,,0
1328,1328,Pumpa,,44.8589441,20.4343204,2,,0,,,0
1329,1329,Pumpa,,44.8584428,20.4331372,2,,0,,,0
1330,1330,Crvenka,,44.8607973,20.4177646,2,,0,,,0
1331,1331,Put Za Ovču,,44.8812954,20.4769996,2,,0,,,0
1332,1332,Put Za Ovču,,44.8814189,20.4763546,2,,0,,,0
1333,1333,Branislava Cige Jerinića,,44.8821425,20.4917927,2,,0,,,0
1334,1334,Branislava Cige Jerinića,,44.8822065,20.4910347,2,,0,,,0
1335,1335,Mirgorodska,,44.8814171,20.4828847,2,,0,,,0
1336,1336,Mirgorodska,,44.8813603,20.4820274,2,,0,,,0
1337,1337,Atovi,,44.8844758,20.5106914,2,,0,,,0
1338,1338,Atovi,,44.8844001,20.5094992,2,,0,,,0
1339,1339,Ovča /Ulaz/,,44.8870714,20.530167,2,,0,,,0
1340,1340,Ovča /Ulaz/,,44.886993,20.5294498,2,,0,,,0
1341,1341,Ovča /Centar/,,44.8882028,20.5347183,2,,0,,,0
1342,1342,Ovča /Centar/,,44.8883208,20.5347389,2,,0,,,0
1343,1343,V. Moštanica /Centar/,,44.6651206,20.3534498,2,,0,,,0
1344,1344,Žarka Zrenjanina,,44.8891808,20.5383112,2,,0,,,0
1345,1345,Stanićeva,,44.6576647,20.3600409,2,,0,,,0
1346,1346,Ovča /Beogradska/,,44.8902671,20.5426734,2,,0,,,0
1347,1347,Železnicka Rampa,,44.875336,20.5393604,2,,0,,,0
1348,1348,Železnicka Rampa,,44.8758985,20.5391505,2,,0,,,0
1349,1349,Ovča /Železnička Stanica/,,44.8753361,20.5433427,2,,0,,,0
1350,1350,Zrenjaninski Put,,44.9129654,20.4428814,2,,0,,,0
1351,1351,Put Za Železnik,,44.741787,20.3602287,2,,0,,,0
1352,1352,Kovilovo 1,,44.9093843,20.4333604,2,,0,,,0
1353,1353,Kovilovo 1,,44.9096185,20.4343506,2,,0,,,0
1354,1354,Kovilovo 2,,44.909747,20.4301743,2,,0,,,0
1355,1355,Kovilovo 2,,44.9091851,20.4304205,2,,0,,,0
1356,1356,Put Za Jabučki Rit,,44.9165563,20.4418226,2,,0,,,0
1357,1357,Put Za Jabučki Rit,,44.9167119,20.4417258,2,,0,,,0
1358,1358,Štale Pkb,,44.921215,20.4527345,2,,0,,,0
1359,1359,Štale Pkb,,44.9211669,20.4523784,2,,0,,,0
1360,1360,Glogonjski Rit,,44.9301752,20.4743936,2,,0,,,0
1361,1361,Glogonjski Rit,,44.9302158,20.4742051,2,,0,,,0
1362,1362,Stari Aerodrom,,44.9288096,20.506286,2,,0,,,0
1363,1363,Stari Aerodrom,,44.9289932,20.5061211,2,,0,,,0
1364,1364,Radenska Bara,,44.9287498,20.5444366,2,,0,,,0
1365,1365,Radenska Bara,,44.9289726,20.5443781,2,,0,,,0
1366,1366,Mašinski Park,,44.9208785,20.5541106,2,,0,,,0
1367,1367,Mašinski Park,,44.9209378,20.5542662,2,,0,,,0
1368,1368,Jabučki Rit,,44.9181913,20.557786,2,,0,,,0
1369,1369,Progres,,44.8458058,20.5129912,1,,0,,,0
1370,1370,Politika,,44.8476272,20.519223,1,,0,,,0
1371,1371,Politika,,44.8474706,20.5177259,1,,0,,,0
1372,1372,Amd Grocka,,44.6806396,20.7102509,2,,0,,,0
1373,1373,Amd Grocka,,44.6817086,20.7088263,2,,0,,,0
1374,1374,Hidrotehnika,,44.849921,20.5278379,1,,0,,,0
1375,1375,Hidrotehnika,,44.8497891,20.5263479,1,,0,,,0
1376,1376,Rafinerija,,44.8510927,20.5322447,1,,0,,,0
1377,1377,Rafinerija,,44.8509324,20.5306577,1,,0,,,0
1378,1378,Janko Lisjak,,44.8437147,20.5081891,1,,0,,,0
1379,1379,Blok Braća Marić,,44.8399264,20.4994962,1,,0,,,0
1380,1380,Progres,,44.8461317,20.5145338,1,,0,,,0
1381,1381,Janko Lisjak,,44.8440392,20.5095884,1,,0,,,0
1382,1382,Blok Braća Marić,,44.8402367,20.5008673,1,,0,,,0
1383,1383,Busije 1,,44.88846,20.2227197,2,,0,,,0
1384,1384,Košutnjak,,44.756565,20.447629,1,,0,,,0
1385,1385,Železnička Stanica Rakovica,,44.7469539,20.4436369,2,,0,,,0
1386,1386,Železnička Stanica Rakovica,,44.7482623,20.4445201,2,,0,,,0
1387,1387,Gorica,,44.6922167,20.3804909,2,,0,,,0
1388,1388,Balkan,,44.8524831,20.5374674,2,,0,,,0
1389,1389,Balkan,,44.852323,20.5358857,2,,0,,,0
1390,1390,Radiostanica,,44.8543519,20.5444817,2,,0,,,0
1391,1391,Radiostanica,,44.8542257,20.5430256,2,,0,,,0
1392,1392,Naselje Ilić,,44.8570787,20.5547433,2,,0,,,0
1393,1393,Naselje Ilić,,44.856952,20.55328,2,,0,,,0
1394,1394,Deseti Kilometar,,44.8590266,20.5620687,2,,0,,,0
1395,1395,Deseti Kilometar,,44.8589019,20.5606133,2,,0,,,0
1396,1396,Sibnica,,44.8665134,20.5904523,2,,0,,,0
1397,1397,Sibnica,,44.8661541,20.5884229,2,,0,,,0
1398,1398,Mz Reva /Mali Raj/,,44.8678217,20.5946727,2,,0,,,0
1399,1399,Rospi Ćuprija,,44.8176338,20.5230681,2,,0,,,0
1400,1400,Gilino Voće,,44.6550474,20.3656662,2,,0,,,0
1401,1401,Trudbenička,,44.8157132,20.5284641,2,,0,,,0
1402,1402,Trudbenička,,44.8161964,20.527039,2,,0,,,0
1403,1403,Višnjička Banja,,44.815638,20.5326762,2,,0,,,0
1404,1404,Višnjika Banja,,44.8158352,20.5318531,2,,0,,,0
1405,1405,Toplana,,44.814516,20.5373319,2,,0,,,0
1406,1406,Toplana,,44.8149445,20.5364713,2,,0,,,0
1407,1407,Lešće,,44.8116551,20.543795,2,,0,,,0
1408,1408,Lešće,,44.8124033,20.5427548,2,,0,,,0
1409,1409,Lešće /Ulaz/,,44.8100444,20.5478127,2,,0,,,0
1410,1410,Lešće /Ulaz/,,44.8105482,20.5471737,2,,0,,,0
1411,1411,Lešće /Groblje/,,44.8101123,20.546905,2,,0,,,0
1412,1412,Slanci /Ulaz/,,44.8065043,20.5569037,2,,0,,,0
1413,1413,Slanci /Ulaz/,,44.8067589,20.556504,2,,0,,,0
1414,1414,Izvorska,,44.8075714,20.566084,2,,0,,,0
1415,1415,Izvorska,,44.8077617,20.5664955,2,,0,,,0
1416,1416,Slanci /Škola/,,44.8081596,20.570728,2,,0,,,0
1417,1417,Slanci /Škola/,,44.8081082,20.5701529,2,,0,,,0
1418,1418,Veterinarska Stanica,,44.8091413,20.5769895,2,,0,,,0
1419,1419,Veterinarska Stanica,,44.8091415,20.5766396,2,,0,,,0
1420,1420,Teslina,,44.8063499,20.5888757,2,,0,,,0
1421,1421,Teslina,,44.8064012,20.5887777,2,,0,,,0
1422,1422,Omladinska,,44.8080079,20.5917225,2,,0,,,0
1423,1423,Omladinska,,44.8080423,20.5915751,2,,0,,,0
1424,1424,Mz Veliko Selo,,44.8107172,20.5977801,2,,0,,,0
1425,1425,Mz Veliko Selo,,44.8107452,20.5976008,2,,0,,,0
1426,1426,Veliko Selo,,44.8122029,20.6014721,2,,0,,,0
1427,1427,Ustanička,,44.7847748,20.5172885,1,,0,,,0
1428,1428,Bajdina,,44.779398,20.525832,1,,0,,,0
1429,1429,Bajdina,,44.7812016,20.5234427,1,,0,,,0
1430,1430,Mirijevska,,44.777633,20.5299696,2,,0,,,0
1431,1431,Mirijevska,,44.7782337,20.5289366,2,,0,,,0
1432,1432,"Oš ""Dragojlo Dudić""",,44.7757503,20.534132,2,,0,,,0
1433,1433,"Oš ""Dragojlo Dudić""",,44.7756738,20.5344679,2,,0,,,0
1434,1434,Nine Kirsanove,,44.7763177,20.547934,2,,0,,,0
1435,1435,Nine Kirsanove,,44.7764168,20.5481469,2,,0,,,0
1436,1436,Novo Naselje,,44.7724251,20.5541451,2,,0,,,0
1437,1437,Novo Naselje,,44.7731032,20.5532951,2,,0,,,0
1438,1438,Put Za Kaluđericu,,44.7676874,20.5603662,2,,0,,,0
1439,1439,Put Za Kaluđericu,,44.7679475,20.5604528,2,,0,,,0
1440,1440,Put Za Institut,,44.7644521,20.5643735,2,,0,,,0
1441,1441,Put Za Institut,,44.7656973,20.5631977,2,,0,,,0
1442,1442,Filipa Kljajića,,44.7622527,20.5661597,2,,0,,,0
1443,1443,Filipa Kljajića,,44.7628532,20.5658619,2,,0,,,0
1444,1444,Stara Kaluđerica,,44.7593407,20.5695641,2,,0,,,0
1445,1445,Stara Kaluđerica,,44.7597494,20.5690556,2,,0,,,0
1446,1446,Čardak,,44.7564445,20.575974,2,,0,,,0
1447,1447,Čardak,,44.756879,20.5755579,2,,0,,,0
1448,1448,Hotel Radmilovac,,44.7536646,20.5808458,2,,0,,,0
1449,1449,Hotel Radmilovac,,44.7535189,20.581153,2,,0,,,0
1450,1450,Petra Kočića,,44.7508803,20.5839783,2,,0,,,0
1451,1451,Petra Kočića,,44.7513503,20.5836382,2,,0,,,0
1452,1452,Dušana  Petrovića Šaneta,,44.7483924,20.587899,2,,0,,,0
1453,1453,Dušana  Petrovića Šaneta,,44.7490186,20.5867314,2,,0,,,0
1454,1454,Zdravstvena St. Leštane I Vinča,,44.74553,20.5986606,2,,0,,,0
1455,1455,Zdravstvena St. Leštane I Vinča,,44.746127,20.5971998,2,,0,,,0
1456,1456,Boleč Raskršće,,44.7356618,20.6115792,2,,0,,,0
1457,1457,Boleč Raskršće,,44.7360168,20.6110772,2,,0,,,0
1458,1458,Hladnjača Pkb,,44.7219462,20.6310019,2,,0,,,0
1459,1459,Hladnjača Pkb,,44.7220334,20.6316493,2,,0,,,0
1460,1460,Vikendice,,44.7131264,20.6599394,2,,0,,,0
1461,1461,Vikendice,,44.7136579,20.6596427,2,,0,,,0
1462,1462,Plantaža,,44.705911,20.6631608,2,,0,,,0
1463,1463,Plantaža,,44.7056914,20.6633464,2,,0,,,0
1464,1464,Bećarevo Brdo,,44.7009092,20.661644,2,,0,,,0
1465,1465,Bećarevo Brdo,,44.7007389,20.6620022,2,,0,,,0
1466,1466,Put Za Zaklopaču,,44.6974303,20.6691578,2,,0,,,0
1467,1467,Put Za Zaklopaču,,44.6976484,20.6690898,2,,0,,,0
1468,1468,Usek,,44.6911685,20.683158,2,,0,,,0
1469,1469,Usek,,44.6919579,20.6827123,2,,0,,,0
1470,1470,Suva Česma,,44.68844,20.6932007,2,,0,,,0
1471,1471,Suva Česma,,44.6887195,20.6924031,2,,0,,,0
1472,1472,Careva Glavica,,44.6858608,20.7017779,2,,0,,,0
1473,1473,Careva Glavica,,44.6864794,20.7013049,2,,0,,,0
1474,1474,Gročica,,44.6833173,20.705481,2,,0,,,0
1475,1475,Gročica,,44.683605,20.7052248,2,,0,,,0
1476,1476,Vase Čarapića,,44.6779464,20.7127402,2,,0,,,0
1477,1477,Vase Čarapića,,44.6778125,20.7129623,2,,0,,,0
1478,1478,Šumadijska,,44.6736087,20.7162543,2,,0,,,0
1479,1479,Šumadijska,,44.6742057,20.7156129,2,,0,,,0
1480,1480,Grocka,,44.6705231,20.7176329,2,,0,,,0
1481,1481,Ja,,44.6698117,20.7168436,2,,0,,,0
1482,1482,15. Maja,,44.6650691,20.7092087,2,,0,,,0
1483,1483,15. Maja,,44.6645082,20.7087976,2,,0,,,0
1484,1484,Bosansko Naselje,,44.6600261,20.7068244,2,,0,,,0
1485,1485,Bosansko Naselje,,44.6602956,20.7071293,2,,0,,,0
1486,1486,Begaljički Most,,44.6561903,20.7068772,2,,0,,,0
1487,1487,Begaljički Most,,44.6565911,20.7072378,2,,0,,,0
1488,1488,Vinogradi,,44.6526235,20.705492,2,,0,,,0
1489,1489,Vinogradi,,44.6522693,20.7055826,2,,0,,,0
1490,1490,Begaljica /Ulaz/,,44.6454696,20.7041554,2,,0,,,0
1491,1491,Begaljica /Ulaz/,,44.6456803,20.7044436,2,,0,,,0
1492,1492,Zelengora,,44.6380084,20.7023493,2,,0,,,0
1493,1493,Zelengora,,44.6381521,20.7026502,2,,0,,,0
1494,1494,Ulica Revolucije,,44.6343855,20.6986528,2,,0,,,0
1495,1495,Ulica Revolucije,,44.6342975,20.6987134,2,,0,,,0
1496,1496,Begaljica,,44.6324467,20.695067,2,,0,,,0
1497,1497,Put Za Zaklopaču,,44.6975733,20.6682871,2,,0,,,0
1498,1498,Put Za Zaklopaču,,44.697367,20.6682366,2,,0,,,0
1499,1499,Mostine,,44.69441,20.6651263,2,,0,,,0
1500,1500,Mostine,,44.6944999,20.6654417,2,,0,,,0
1501,1501,Ulaz U Zaklopaču,,44.6873882,20.6632598,2,,0,,,0
1502,1502,Ulaz U Zaklopaču,,44.6880218,20.6633285,2,,0,,,0
1503,1503,4. Jula,,44.6852185,20.6619424,2,,0,,,0
1504,1504,4. Jula,,44.6850027,20.6620293,2,,0,,,0
1505,1505,Trafostanica,,44.6804239,20.6626444,2,,0,,,0
1506,1506,Trafostanica,,44.6802008,20.6625599,2,,0,,,0
1507,1507,Dom Kulture,,44.6762098,20.6597031,2,,0,,,0
1508,1508,Dom Kulture,,44.6764122,20.6608992,2,,0,,,0
1509,1509,Crkva Sv. Trojice,,44.6755516,20.6564975,2,,0,,,0
1510,1510,Crkva Sv. Trojice,,44.6754451,20.6564796,2,,0,,,0
1511,1511,Zaklopača,,44.6756631,20.6517635,2,,0,,,0
1512,1512,Zaklopača,,44.6754053,20.6527993,2,,0,,,0
1513,1513,Svetosavska,,44.7365173,20.6151896,2,,0,,,0
1514,1514,Svetosavska,,44.7366995,20.615382,2,,0,,,0
1515,1515,Mali Lug,,44.7386935,20.6189158,2,,0,,,0
1516,1516,Mali Lug,,44.7387599,20.6187952,2,,0,,,0
1517,1517,Prokop,,44.7388611,20.6251288,2,,0,,,0
1518,1518,Prokop,,44.739022,20.6247795,2,,0,,,0
1519,1519,Kralja Petra Prvog,,44.7390538,20.6302622,2,,0,,,0
1520,1520,Kralja Petra Prvog,,44.7391432,20.630255,2,,0,,,0
1521,1521,Duboko,,44.7390109,20.6379041,2,,0,,,0
1522,1522,Duboko,,44.7391223,20.6380751,2,,0,,,0
1523,1523,Ritopek /Ulaz/,,44.7382658,20.6445162,2,,0,,,0
1524,1524,Ritopek /Ulaz/,,44.7383258,20.644595,2,,0,,,0
1525,1525,Ritopek /Škola/,,44.7380509,20.650682,2,,0,,,0
1526,1526,Ritopek /Škola/,,44.7381399,20.6507474,2,,0,,,0
1527,1527,Ritopek /Centar/,,44.7386009,20.6548287,2,,0,,,0
1528,1528,Prvog Maja,,44.731754,20.6037396,2,,0,,,0
1529,1529,Prvog Maja,,44.7315214,20.60391,2,,0,,,0
1530,1530,Boleč /Centar/,,44.7284724,20.6044418,2,,0,,,0
1531,1531,Boleč /Centar/,,44.7290329,20.6040831,2,,0,,,0
1532,1532,Virska,,44.7236742,20.6068994,2,,0,,,0
1533,1533,Virska,,44.7245677,20.6065659,2,,0,,,0
1534,1534,Boleč,,44.7223463,20.6075629,2,,0,,,0
1535,1535,Ustanička,,44.7849175,20.517321,1,,0,,,0
1536,1536,Skladište Boja,,44.7390255,20.5937832,2,,0,,,0
1537,1537,Skladište Boja,,44.7391398,20.5941185,2,,0,,,0
1538,1538,Elektrodistribucija,,44.7354635,20.5897505,2,,0,,,0
1539,1539,Elektrodistribucija,,44.735131,20.5896025,2,,0,,,0
1540,1540,Stari Put Za Boleč,,44.7306334,20.5842716,2,,0,,,0
1541,1541,Stari Put Za Boleč,,44.7301375,20.5839166,2,,0,,,0
1542,1542,Leštane /Ulaz/,,44.7284032,20.5758459,2,,0,,,0
1543,1543,Leštane /Izlaz/,,44.7280536,20.5757746,2,,0,,,0
1544,1544,Leštane,,44.7304255,20.5754221,2,,0,,,0
1547,1547, Zdravstvena Stanica  Leštane I Vinča,,44.7465041,20.5999468,2,,0,,,0
1548,1548,Babin Lug,,44.7487046,20.6044057,2,,0,,,0
1549,1549,Babin Lug,,44.7483095,20.6031985,2,,0,,,0
1550,1550,Vinča /Ulaz/,,44.7501649,20.606642,2,,0,,,0
1551,1551,Vinča /Ulaz/,,44.7504783,20.6069077,2,,0,,,0
1552,1552,Mike Petrovića Alasa,,44.7532892,20.610842,2,,0,,,0
1553,1553,Mike Petrovića Alasa,,44.7533099,20.6106581,2,,0,,,0
1554,1554,Svetosavska,,44.7557817,20.6133122,2,,0,,,0
1555,1555,Svetosavska,,44.7561911,20.6135412,2,,0,,,0
1556,1556,Vinča /Škola/,,44.7582367,20.6163254,2,,0,,,0
1557,1557,Vinča /Škola/,,44.7583842,20.6163423,2,,0,,,0
1558,1558,Vinčanska,,44.7624361,20.6216252,2,,0,,,0
1559,1559,Vinčanska,,44.7622649,20.6213887,2,,0,,,0
1560,1560,Miloša Obrenovića ,,44.7648518,20.6161603,2,,0,,,0
1561,1561,Miloša Obrenovića ,,44.7647975,20.6160826,2,,0,,,0
1562,1562,Vinča,,44.7671304,20.6106591,2,,0,,,0
1563,1563,Kefalonijska,,44.730482,20.4832156,2,,0,,,0
1564,1564,Prvomajska,,44.783707,20.5212183,1,,0,,,0
1565,1565,Prvomajska,,44.7840212,20.5206712,1,,0,,,0
1566,1566,Narodnog Fronta,,44.7710806,20.535531,2,,0,,,0
1567,1567,Narodnog Fronta,,44.7714215,20.5357026,2,,0,,,0
1568,1568,Naselje Klenak,,44.7638798,20.5327716,2,,0,,,0
1569,1569,Naselje Klenak,,44.7645738,20.5332717,2,,0,,,0
1570,1570,Lipovačka,,44.7614815,20.5306878,2,,0,,,0
1571,1571,Lipovačka,,44.7613368,20.5306816,2,,0,,,0
1572,1572,Mz Vml,,44.7602608,20.5251856,2,,0,,,0
1573,1573,Mz Vml,,44.7600929,20.5253888,2,,0,,,0
1574,1574,Vizantijska ,,44.7578736,20.5254296,2,,0,,,0
1575,1575,Vizantijska ,,44.7579915,20.5255822,2,,0,,,0
1576,1576,Vml,,44.7563035,20.5291532,2,,0,,,0
1577,1577,Zvezdara /Pijaca/,,44.7940841,20.5045231,1,,0,,,0
1578,1578,Zvezdara /Pijaca/,,44.7939119,20.5043947,1,,0,,,0
1579,1579,Pirandelova,,44.7772495,20.5406132,2,,0,,,0
1580,1580,Pirandelova,,44.7768554,20.5391538,2,,0,,,0
1581,1581,Dom Zdravlja,,44.7656148,20.5581245,2,,0,,,0
1582,1582,Dom Zdravlja,,44.7658814,20.5595038,2,,0,,,0
1583,1583,Kopaonička,,44.7645144,20.5542109,2,,0,,,0
1584,1584,Kopaonička,,44.7644918,20.5544071,2,,0,,,0
1585,1585,Stepe Stepanovića,,44.7627936,20.5494712,2,,0,,,0
1586,1586,Stepe Stepanovića,,44.7627091,20.5496151,2,,0,,,0
1587,1587,Željka Milivojevića,,44.7591702,20.5511111,2,,0,,,0
1588,1588,Željka Milivojevića,,44.759412,20.551172,2,,0,,,0
1589,1589,Radisava Ignjatovića,,44.7569219,20.5519362,2,,0,,,0
1590,1590,Radisava Ignjatovića,,44.7567626,20.5522549,2,,0,,,0
1591,1591,Kaluđerica /Centar/,,44.7532738,20.55386,2,,0,,,0
1592,1592,Kaluđerica /Centar/,,44.7532825,20.554029,2,,0,,,0
1593,1593,Isidora Blagojevića,,44.7526627,20.556368,2,,0,,,0
1594,1594,Isidora Blagojevića,,44.7524185,20.5559111,2,,0,,,0
1595,1595,Kaluđerica,,44.752103,20.5607718,2,,0,,,0
1596,1596,Crkva,,44.7229267,20.3755991,2,,0,,,0
1597,1597,Voždovac-Okretnica,,44.7608941,20.4838843,1,,0,,,0
1598,1598,Voždovac,,44.7611712,20.4837068,1,,0,,,0
1599,1599,Banjica 2,,44.751757,20.480303,1,,0,,,0
1600,1600,Banjica 2,,44.752039,20.480239,1,,0,,,0
1601,1601,Riste Stefanovića,,44.7502465,20.479407,2,,0,,,0
1602,1602,Riste Stefanovića,,44.7500279,20.4802819,2,,0,,,0
1603,1603,Voje Radića,,44.7467636,20.4769871,2,,0,,,0
1604,1604,Voje Radića,,44.7463791,20.4772823,2,,0,,,0
1605,1605,Jajinci /Dom Zdravlja/,,44.740451,20.4859208,2,,0,,,0
1606,1606,Jajinci /Dom Zdravlja/,,44.740976,20.4855199,2,,0,,,0
1607,1607,Milutina Miljkovića,,44.7352645,20.4837743,2,,0,,,0
1608,1608,Milutina Miljkovića,,44.7352203,20.4838905,2,,0,,,0
1609,1609,Spomen Park Jajinci,,44.7272679,20.4863345,2,,0,,,0
1610,1610,Spomen Park Jajinci,,44.7295973,20.4842591,2,,0,,,0
1611,1611,Rakovica Selo (Spomen Česma),,44.7265832,20.4950854,2,,0,,,0
1612,1612,Rakovica Selo (Spomen Česma),,44.7264974,20.4943679,2,,0,,,0
1613,1613,Rakovica Selo,,44.7216495,20.498201,2,,0,,,0
1614,1614,Rakovica Selo,,44.7217045,20.4983434,2,,0,,,0
1615,1615,Kružni Put,,44.720786,20.5033529,2,,0,,,0
1616,1616,Kružni Put,,44.7210824,20.5033425,2,,0,,,0
1617,1617,Beli Potok /Kumbara/,,44.7107962,20.5060641,2,,0,,,0
1618,1618,Beli Potok /Kumbara/,,44.7108029,20.5062134,2,,0,,,0
1619,1619,Pošta,,44.7011753,20.5041936,2,,0,,,0
1620,1620,Pošta,,44.7017364,20.5048527,2,,0,,,0
1621,1621,Avala,,44.6962477,20.5017985,2,,0,,,0
1622,1622,Avala,,44.6966666,20.5020376,2,,0,,,0
1623,1623,Mz Pinosava,,44.6954761,20.4930297,2,,0,,,0
1624,1624,Mz Pinosava,,44.6955051,20.4938478,2,,0,,,0
1625,1625,Oš Vasa Čarapić,,44.6951059,20.4892205,2,,0,,,0
1626,1626,Oš Vasa Čarapić,,44.6949923,20.4895767,2,,0,,,0
1627,1627,Zadruga,,44.6968134,20.4839058,2,,0,,,0
1628,1628,Zadruga,,44.6967972,20.4834446,2,,0,,,0
1629,1629,Groblje,,44.696605,20.478902,2,,0,,,0
1630,1630,Put Za Beli Potok,,44.7064123,20.5092013,2,,0,,,0
1631,1631,Put Za Beli Potok,,44.7066643,20.5090372,2,,0,,,0
1632,1632,Beli Potok /Ulaz/,,44.7037771,20.513338,2,,0,,,0
1633,1633,Beli Potok /Ulaz/,,44.704252,20.5148478,2,,0,,,0
1634,1634,Beli Potok /Centar/,,44.7053972,20.518742,2,,0,,,0
1635,1635,Oš Vojvoda Putnik,,44.6674007,20.4986146,2,,0,,,0
1636,1636,Minel 3,,44.6686908,20.491859,2,,0,,,0
1637,1637,Minel 3,,44.6685623,20.492279,2,,0,,,0
1638,1638,Minel 2,,44.667071,20.4882984,2,,0,,,0
1639,1639,Padinska Skela 1,,44.945472,20.424453,2,,0,,,0
1640,1640,Deponija,,44.7288326,20.4348309,2,,0,,,0
1641,1641,Deponija,,44.729406,20.434756,2,,0,,,0
1642,1642,Kijevo,,44.7252659,20.4379242,2,,0,,,0
1643,1643,Kijevo,,44.7255483,20.4383769,2,,0,,,0
1644,1644,Ispod Tunela,,44.7244645,20.4426666,2,,0,,,0
1645,1645,Ispod Tunela,,44.7245608,20.442479,2,,0,,,0
1646,1646,Spomenik,,44.7229786,20.4456872,2,,0,,,0
1647,1647,Resnik /Izlaz/,,44.7197037,20.447911,2,,0,,,0
1648,1648,Resnik /Izlaz/,,44.7192677,20.4479711,2,,0,,,0
1649,1649,Spomenik,,44.7226849,20.4461858,2,,0,,,0
1650,1650,Palih Boraca,,44.7174523,20.4484299,2,,0,,,0
1651,1651,Minel 2,,44.6673357,20.4887757,2,,0,,,0
1652,1652,Čukarica,,44.7863687,20.4143419,1,,0,,,0
1653,1653,Čukarica,,44.786466,20.4150183,1,,0,,,0
1654,1654,Kongrap,,44.7332335,20.3620074,2,,0,,,0
1655,1655,Kongrap,,44.7333182,20.362222,2,,0,,,0
1656,1656,Ivo Lola Ribar,,44.7272754,20.3684364,2,,0,,,0
1657,1657,Nićiforovićeva,,44.7232934,20.3687885,2,,0,,,0
1658,1658,Nićiforovićeva,,44.7230582,20.3687763,2,,0,,,0
1659,1659,Železnička Rampa,,44.7203436,20.3674186,2,,0,,,0
1660,1660,Železnička Rampa,,44.7207401,20.3672956,2,,0,,,0
1661,1661,Stevana Filipovića,,44.716659,20.368126,2,,0,,,0
1662,1662,Stevana Filipovića,,44.717595,20.36821,2,,0,,,0
1663,1663,Žikice Jovanovića,,44.7146917,20.368165,2,,0,,,0
1664,1664,Žikice Jovanovića,,44.7141426,20.3682256,2,,0,,,0
1665,1665,Sare Bernar,,44.6966578,20.3783106,2,,0,,,0
1666,1666,Sare Bernar,,44.6973059,20.3782566,2,,0,,,0
1667,1667,Gorica,,44.6932573,20.3803679,2,,0,,,0
1668,1668,Sremčica /Ulaz/,,44.6876693,20.3814697,2,,0,,,0
1669,1669,Sremčica /Ulaz/,,44.6887067,20.3815579,2,,0,,,0
1670,1670,Šumske Ekonomije,,44.6839223,20.3835413,2,,0,,,0
1671,1671,Šumske Ekonomije,,44.685528,20.3827207,2,,0,,,0
1672,1672,Obrenovačka,,44.6820477,20.3850876,2,,0,,,0
1673,1673,Obrenovačka,,44.681197,20.3859879,2,,0,,,0
1674,1674,Sremčica (Centar),,44.6766139,20.3909971,2,,0,,,0
1675,1675,Sremčica (Centar),,44.6770822,20.3906038,2,,0,,,0
1676,1676,Jeličićev Venac,,44.6737064,20.3941031,2,,0,,,0
1677,1677,Jeličićev Venac,,44.6740343,20.3940418,2,,0,,,0
1678,1678,Tomaška,,44.6705351,20.3963427,2,,0,,,0
1679,1679,Tomaška,,44.6708974,20.3962417,2,,0,,,0
1680,1680,Tesarska,,44.6654923,20.399449,2,,0,,,0
1681,1681,Tesarska,,44.6658514,20.3995719,2,,0,,,0
1682,1682,Mirkovićeva,,44.6629612,20.3981827,2,,0,,,0
1683,1683,Mirkovićeva,,44.6634379,20.398729,2,,0,,,0
1684,1684,Vašarska,,44.6596486,20.3975683,2,,0,,,0
1685,1685,Vašarska,,44.6604397,20.3977001,2,,0,,,0
1686,1686,Sremčica /Izlaz/,,44.6553142,20.3994119,2,,0,,,0
1687,1687,Sremčica /Izlaz/,,44.656102,20.3989289,2,,0,,,0
1688,1688,Sremčica,,44.6504103,20.403984,2,,0,,,0
1689,1689,Sremčica,,44.6506588,20.4037419,2,,0,,,0
1690,1690,Vidikovac,,44.7316011,20.4206131,2,,0,,,0
1691,1691,Banjica 2,,44.752088,20.479854,1,,0,,,0
1692,1692,Naselje Petlovo Brdo,,44.72353,20.41745,2,,0,,,0
1693,1693,Naselje Petlovo Brdo,,44.72424,20.41831,2,,0,,,0
1694,1694,Grmovac /Ulaz/,,44.855664,20.1662549,2,,0,,,0
1695,1695,Put Za Dunavac,,45.064564,20.3804129,2,,0,,,0
1696,1696,Grmovac /Ulaz/,,44.8555862,20.1669857,2,,0,,,0
1697,1697,Novo Naselje /Rušanj/,,44.68221,20.4286021,2,,0,,,0
1698,1698,Novo Naselje /Rušanj/,,44.6822376,20.4287086,2,,0,,,0
1699,1699,Ilije Miličevića,,44.6795172,20.4317378,2,,0,,,0
1700,1700,Ilije Miličevića,,44.6795276,20.4314689,2,,0,,,0
1701,1701,Oslobođenja,,44.6828305,20.436234,2,,0,,,0
1702,1702,Oslobođenja,,44.6827622,20.4356077,2,,0,,,0
1703,1703,Mz Rušanj,,44.6823377,20.4393176,2,,0,,,0
1704,1704,Mz Rušanj,,44.6824374,20.4392646,2,,0,,,0
1705,1705,Like Ružića,,44.681281,20.4458002,2,,0,,,0
1706,1706,Like Ružića,,44.6812459,20.4453215,2,,0,,,0
1707,1707,13. Septembar,,44.6828315,20.4515502,2,,0,,,0
1708,1708,Drage Vukićević,,44.6871363,20.4385217,2,,0,,,0
1709,1709,Drage Vukićević,,44.6865969,20.4385215,2,,0,,,0
1710,1710,Oslobođenja 1,,44.6891464,20.4391551,2,,0,,,0
1711,1711,Oslobođenja 1,,44.689286,20.4392901,2,,0,,,0
1712,1712,Oslobođenja 2,,44.6904112,20.4418504,2,,0,,,0
1713,1713,Oslobođenja 2,,44.6899643,20.4411008,2,,0,,,0
1714,1714,Boleč /Crkva/,,44.735967,20.6087937,2,,0,,,0
1715,1715,Boleč /Crkva/,,44.7357848,20.6085571,2,,0,,,0
1716,1716,Orlovača Groblje,,44.7094459,20.411617,2,,0,,,0
1717,1717,Olge Jovičić,,44.8496973,20.4674168,1,,0,,,0
1718,1718,Crkva,,44.7222629,20.3764917,2,,0,,,0
1719,1719,Milana Zečara,,44.8487692,20.4712834,1,,0,,,0
1720,1720,Augusta Šenoe,,44.85276,20.47297,1,,0,,,0
1721,1721,Augusta Šenoe,,44.85276,20.47297,1,,0,,,0
1722,1722,Put Za Kotež,,44.85171,20.47961,1,,0,,,0
1723,1723,Put Za Kotež,,44.8520509,20.4785726,1,,0,,,0
1724,1724,Posavska,,44.91111,20.266248,2,,0,,,0
1725,1725,Src  Surčin (Ulaz),,44.788071,20.234255,2,,0,,,0
1726,1726,Savski Trg (Savska),,44.806701,20.45482,1,,0,,,0
1727,1727,Oš Petar Kočić,,44.8416323,20.3844226,1,,0,,,0
1728,1728,Atanasija Pulje,,44.8355679,20.382531,1,,0,,,0
1729,1729,Hala Aleksandar Nikolić,,44.8162161,20.4832484,1,,0,,,0
1730,1730,Vaznesenjska Crkva,,44.8079497,20.4620508,1,,0,,,0
1731,1731,Španskih Boraca,,44.8104532,20.4143661,1,,0,,,0
1732,1732,Put Za Dunavac,,45.0655455,20.3805356,2,,0,,,0
1733,1733,Preliv,,45.0212911,20.3988915,2,,0,,,0
1734,1734,Preliv,,45.0217847,20.3981239,2,,0,,,0
1735,1735,Nasipska Čuvarnica,,45.0327949,20.3937348,2,,0,,,0
1736,1736,Nasipska Čuvarnica,,45.0335577,20.3934554,2,,0,,,0
1737,1737,Japanski Cvet,,45.0520839,20.3913554,2,,0,,,0
1738,1738,Japanski Cvet,,45.0503225,20.39202,2,,0,,,0
1739,1739,Dunavac,,45.0670716,20.383277,2,,0,,,0
1740,1740,Studentski Grad,,44.8275399,20.3984802,1,,0,,,0
1741,1741,Aleksandra Dubčeka,,44.8392754,20.4105433,1,,0,,,0
1742,1742,Stevana Lukovića,,44.743047,20.4350135,2,,0,,,0
1743,1743,Stevana Lukovića,,44.7440696,20.4368141,2,,0,,,0
1744,1744,Stojana Jankovića,,44.7408157,20.4317775,2,,0,,,0
1745,1745,Stojana Jankovića,,44.7415409,20.4329497,2,,0,,,0
1746,1746,Slavka Rodića,,44.736575,20.430097,2,,0,,,0
1747,1747,Slavka Rodića,,44.7370361,20.4305816,2,,0,,,0
1748,1748,Oš 14. Oktobar,,44.7324069,20.4274789,2,,0,,,0
1749,1749,Oš 14. Oktobar,,44.7336518,20.4274036,2,,0,,,0
1750,1750,17. Oktobra,,44.7301442,20.4277223,2,,0,,,0
1751,1751,17. Oktobra,,44.7304449,20.4278499,2,,0,,,0
1752,1752,Sretena Mladenovića,,44.726735,20.4316948,2,,0,,,0
1753,1753,Sretena Mladenovića,,44.7268793,20.4318214,2,,0,,,0
1754,1754,Tošin Bunar,,44.822087,20.3998623,1,,0,,,0
1755,1755,Tošin Bunar,,44.8215336,20.3997781,1,,0,,,0
1756,1756,Ledine,,44.8052443,20.3483621,1,,0,,,0
1757,1757,Ledine,,44.8052049,20.3487774,1,,0,,,0
1758,1758,Vila Mara,,44.8012855,20.3352986,2,,0,,,0
1759,1759,Vila Mara,,44.8007466,20.3342003,2,,0,,,0
1760,1760,Vikend Naselje,,44.7992969,20.3246607,2,,0,,,0
1761,1761,Vikend Naselje,,44.7992822,20.3253346,2,,0,,,0
1762,1762,Malinjak,,44.7984883,20.319001,2,,0,,,0
1763,1763,Malinjak,,44.7984021,20.3194355,2,,0,,,0
1764,1764,Galovica,,44.7974481,20.3117854,2,,0,,,0
1765,1765,Galovica,,44.7974186,20.3126441,2,,0,,,0
1766,1766,Orešac,,44.7964848,20.3051716,2,,0,,,0
1767,1767,Orešac,,44.7964045,20.3056454,2,,0,,,0
1768,1768,Surčin /Ulaz/,,44.7953897,20.2974603,2,,0,,,0
1769,1769,Surčin /Ulaz/,,44.7952663,20.2977271,2,,0,,,0
1770,1770,Crkva,,44.7944016,20.2903945,2,,0,,,0
1771,1771,Crkva,,44.7943148,20.290938,2,,0,,,0
1772,1772,Marka Raba,,44.793562,20.2846261,2,,0,,,0
1773,1773,Marka Raba,,44.793668,20.2864851,2,,0,,,0
1774,1774,Skopljanska,,44.7925888,20.2781483,2,,0,,,0
1775,1775,Skopljanska,,44.7927301,20.2800437,2,,0,,,0
1776,1776,Rasadnik,,44.8307026,20.3893489,1,,0,,,0
1777,1777,Src Surčin,,44.7880049,20.2316729,2,,0,,,0
1778,1778,Surčin /Centar/,,44.7909292,20.2694345,2,,0,,,0
1779,1779,Naselje Česma,,44.6641337,20.4851852,2,,0,,,0
1780,1780,Krušedolska,,44.7894004,20.2612383,2,,0,,,0
1781,1781,Krušedolska,,44.7894895,20.2623689,2,,0,,,0
1782,1782,Braće Nikolić,,44.7833741,20.2538541,2,,0,,,0
1783,1783,Braće Nikolić,,44.7839139,20.2542923,2,,0,,,0
1784,1784,Rimski Kanal,,44.77844,20.245562,2,,0,,,0
1785,1785,Rimski Kanal,,44.778868,20.246924,2,,0,,,0
1786,1786,Put Za Jakovo,,44.7761032,20.2402445,2,,0,,,0
1787,1787,Put Za Jakovo,,44.7763653,20.2411484,2,,0,,,0
1788,1788,Silosi,,44.7702286,20.2429556,2,,0,,,0
1789,1789,Silosi,,44.7702176,20.243156,2,,0,,,0
1790,1790,Servisi,,44.7617435,20.2521794,2,,0,,,0
1791,1791,Servisi,,44.7625284,20.2512898,2,,0,,,0
1792,1792,Sremska,,44.7597574,20.254841,2,,0,,,0
1793,1793,Sremska,,44.7595965,20.2551909,2,,0,,,0
1794,1794,Sestara Krstonošić,,44.7560315,20.2583146,2,,0,,,0
1795,1795,Sestara Krstonošić,,44.7568398,20.2576788,2,,0,,,0
1796,1796,Mz Jakovo,,44.7537157,20.2604685,2,,0,,,0
1797,1797,Mz Jakovo,,44.754514,20.2598952,2,,0,,,0
1798,1798,Đorđa Radovića,,44.749091,20.2647703,2,,0,,,0
1799,1799,Đorđa Radovića,,44.7495835,20.2644703,2,,0,,,0
1800,1800,Oslobođenja,,44.7464912,20.2653744,2,,0,,,0
1801,1801,Oslobođenja,,44.7462088,20.265452,2,,0,,,0
1802,1802,Jakovo,,44.7453373,20.2701957,2,,0,,,0
1803,1803,Braće Suzić,,44.7978555,20.2645212,2,,0,,,0
1804,1804,Braće Suzić,,44.7975035,20.2654908,2,,0,,,0
1805,1805,Surčin /Izlaz/,,44.8017938,20.2578068,2,,0,,,0
1806,1806,Surčin /Izlaz/,,44.8011906,20.2585063,2,,0,,,0
1807,1807,Surčinska Petlja,,44.8062705,20.2508075,2,,0,,,0
1808,1808,Surčinska Petlja,,44.8061435,20.2507645,2,,0,,,0
1809,1809,Industrijska Zona Dobanovci,,44.811512,20.2425589,2,,0,,,0
1810,1810,Industrijska Zona Dobanovci,,44.8109536,20.2435719,2,,0,,,0
1811,1811,Naselje Pik,,44.816952,20.2340204,2,,0,,,0
1812,1812,Naselje Pik,,44.8172427,20.2333845,2,,0,,,0
1813,1813,Bezdan,,44.8198519,20.2294645,2,,0,,,0
1814,1814,Bezdan,,44.8198851,20.2292481,2,,0,,,0
1815,1815,Stevana Jovanovića,,44.8247599,20.225239,2,,0,,,0
1816,1816,Stevana Jovanovića,,44.8247499,20.2250814,2,,0,,,0
1817,1817,Dobanovci /Centar/,,44.8283407,20.2224055,2,,0,,,0
1818,1818,Dobanovci /Centar/,,44.8271901,20.2231339,2,,0,,,0
1819,1819,Žarka Jelića,,44.8321282,20.2194611,2,,0,,,0
1820,1820,Žarka Jelića,,44.8322017,20.2192424,2,,0,,,0
1821,1821,Slovački Dom,,44.8346888,20.2174592,2,,0,,,0
1822,1822,Slovački Dom,,44.8350455,20.2170542,2,,0,,,0
1823,1823,Fruškogorska,,44.8375682,20.2155777,2,,0,,,0
1824,1824,Fruškogorska,,44.8379315,20.215195,2,,0,,,0
1825,1825,Dobanovci /Ulaz/,,44.8403595,20.2138701,2,,0,,,0
1826,1826,Dobanovci /Ulaz/,,44.8404372,20.2136944,2,,0,,,0
1827,1827,Partizanska 1,,44.8698927,20.2041264,2,,0,,,0
1828,1828,Partizanska 1,,44.8690357,20.2040383,2,,0,,,0
1829,1829,Ugrinovci /Ulaz/,,44.8714825,20.1996851,2,,0,,,0
1830,1830,Ugrinovci /Ulaz/,,44.8712409,20.200267,2,,0,,,0
1831,1831,Beogradska,,44.8736218,20.1929642,2,,0,,,0
1832,1832,Beogradska,,44.8732561,20.1937168,2,,0,,,0
1833,1833,Ugrinovci /Centar/,,44.8756954,20.1872524,2,,0,,,0
1834,1834,Ugrinovci /Centar/,,44.8754231,20.1876912,2,,0,,,0
1835,1835,Ugrinovci,,44.8781038,20.1799571,2,,0,,,0
1836,1836,Kej Oslobođenja,,44.843042,20.415148,1,,0,,,0
1837,1837,Bečmen Naselje,,44.778308,20.2196356,2,,0,,,0
1838,1838,Bečmen Naselje,,44.7781432,20.2201382,2,,0,,,0
1839,1839,Maksin Sokak,,44.7792521,20.2116179,2,,0,,,0
1840,1840,Maksin Sokak,,44.7791757,20.2113364,2,,0,,,0
1841,1841,Bečmen /Centar/,,44.780819,20.202533,2,,0,,,0
1842,1842,Bečmen /Centar/,,44.7805514,20.2034533,2,,0,,,0
1843,1843,Bečmenskih Ilegalaca,,44.7825228,20.1956083,2,,0,,,0
1844,1844,Bečmenskih Ilegalaca,,44.7823504,20.195734,2,,0,,,0
1845,1845,Bečmen Ekonomija,,44.786427,20.1858526,2,,0,,,0
1846,1846,Bečmen Ekonomija,,44.7862456,20.185979,2,,0,,,0
1847,1847,Petrovčić /Ulaz/,,44.7936791,20.1511324,2,,0,,,0
1848,1848,Petrovčić /Ulaz/,,44.7935652,20.1517094,2,,0,,,0
1849,1849,Petrovčić /Centar/,,44.7941452,20.144681,2,,0,,,0
1850,1850,Petrovčić /Centar/,,44.7940796,20.1445733,2,,0,,,0
1851,1851,Petrovčić,,44.7949267,20.1355916,2,,0,,,0
1852,1852,Bežanijska Kosa,,44.8271015,20.3887901,1,,0,,,0
1853,1853,Bežanijska Kosa,,44.8265651,20.3887579,1,,0,,,0
1854,1854,Zmaj,,44.8314398,20.3702985,1,,0,,,0
1855,1855,Zmaj,,44.8309329,20.3718106,1,,0,,,0
1856,1856,Grmeč,,44.8326436,20.360752,1,,0,,,0
1857,1857,Grmeč,,44.8321836,20.3622599,1,,0,,,0
1858,1858,Ikarbus,,44.8339085,20.3470906,2,,0,,,0
